[
  {
    "Country": "United States",
    "Region": "Alabama",
    "City": "Birmingham",
    "Store_name": "Apple The Summit",
    "Img_url": "https://www.apple.com/retail/thesummit/images/hero_medium.jpg",
    "Store_address": "217 Summit Boulevard, Birmingham, AL, 35243",
    "Lat": 33.4465154,
    "Long": -86.7296322
  },
  {
    "Country": "United States",
    "Region": "California",
    "City": "Pasadena",
    "Store_name": "Apple Pasadena",
    "Img_url": "https://www.apple.com/retail/pasadena/images/hero_medium.jpg",
    "Store_address": "54 West Colorado Boulevard, Pasadena, CA, 91105",
    "Lat": 34.145403,
    "Long": -118.1516282
  },
  {
    "Country": "United States",
    "Region": "California",
    "City": "Palo Alto",
    "Store_name": "Apple Stanford",
    "Img_url": "https://www.apple.com/retail/stanford/images/hero_medium.jpg",
    "Store_address": "379 Stanford Shopping Center, Palo Alto, CA, 94304",
    "Lat": 37.442784,
    "Long": -122.1730075
  },
  {
    "Country": "United States",
    "Region": "California",
    "City": "Palo Alto",
    "Store_name": "Apple Palo Alto",
    "Img_url": "https://www.apple.com/retail/paloalto/images/hero_medium.jpg",
    "Store_address": "340 University Avenue, Palo Alto, CA, 94301",
    "Lat": 37.4463033,
    "Long": -122.160657
  },
  {
    "Country": "United States",
    "Region": "California",
    "City": "Palm Desert",
    "Store_name": "Apple El Paseo Village",
    "Img_url": "https://www.apple.com/retail/elpaseovillage/images/hero_medium.jpg",
    "Store_address": "73445 El Paseo, Palm Desert, CA, 92260",
    "Lat": 33.7194494,
    "Long": -116.3831925
  },
  {
    "Country": "United States",
    "Region": "California",
    "City": "Northridge",
    "Store_name": "Apple Northridge",
    "Img_url": "https://www.apple.com/retail/northridge/images/hero_medium.jpg",
    "Store_address": "9301 Tampa Avenue, Northridge, CA, 91324",
    "Lat": 34.2384139,
    "Long": -118.5560878
  },
  {
    "Country": "United States",
    "Region": "California",
    "City": "Newport Beach",
    "Store_name": "Apple Fashion Island",
    "Img_url": "https://www.apple.com/retail/fashionisland/images/hero_medium.jpg",
    "Store_address": "1113 Newport Center Drive, Newport Beach, CA, 92660",
    "Lat": 33.6151092,
    "Long": -117.8768732
  },
  {
    "Country": "United States",
    "Region": "California",
    "City": "Monterey",
    "Store_name": "Apple Del Monte",
    "Img_url": "https://www.apple.com/retail/delmonte/images/hero_medium.jpg",
    "Store_address": "240 Del Monte Center, Monterey, CA, 93940",
    "Lat": 36.5854341,
    "Long": -121.8971718
  },
  {
    "Country": "United States",
    "Region": "California",
    "City": "Modesto",
    "Store_name": "Apple Vintage Faire",
    "Img_url": "https://www.apple.com/retail/vintagefaire/images/hero_medium.jpg",
    "Store_address": "3401 Dale Road, Modesto, CA, 95356",
    "Lat": 37.6888109,
    "Long": -121.0541136
  },
  {
    "Country": "United States",
    "Region": "California",
    "City": "Mission Viejo",
    "Store_name": "Apple Mission Viejo",
    "Img_url": "https://www.apple.com/retail/missionviejo/images/hero_medium.jpg",
    "Store_address": "936C The Shops at Mission Viejo, Mission Viejo, CA, 92691",
    "Lat": 33.5589529,
    "Long": -117.6685347
  },
  {
    "Country": "United States",
    "Region": "California",
    "City": "Manhattan Beach",
    "Store_name": "Apple Manhattan Village",
    "Img_url": "https://www.apple.com/retail/manhattanvillage/images/hero_medium.jpg",
    "Store_address": "3200 Sepulveda Boulevard, Manhattan Beach, CA, 90266",
    "Lat": 33.8952925,
    "Long": -118.3942654
  },
  {
    "Country": "United States",
    "Region": "California",
    "City": "Los Gatos",
    "Store_name": "Apple Los Gatos",
    "Img_url": "https://www.apple.com/retail/losgatos/images/hero_medium.jpg",
    "Store_address": "23 N. Santa Cruz Avenue, Los Gatos, CA, 95030",
    "Lat": 37.223439,
    "Long": -121.983882
  },
  {
    "Country": "United States",
    "Region": "California",
    "City": "Los Angeles",
    "Store_name": "Apple The Grove",
    "Img_url": "https://www.apple.com/retail/thegrove/images/hero_medium.jpg",
    "Store_address": "189 The Grove Drive, Los Angeles, CA, 90036",
    "Lat": 34.0713942,
    "Long": -118.3573349
  },
  {
    "Country": "United States",
    "Region": "California",
    "City": "Los Angeles",
    "Store_name": "Apple Century City",
    "Img_url": "https://www.apple.com/retail/centurycity/images/hero_medium.jpg",
    "Store_address": "10250 Santa Monica Boulevard, Los Angeles, CA, 90067",
    "Lat": 34.0590031,
    "Long": -118.418866
  },
  {
    "Country": "United States",
    "Region": "California",
    "City": "Los Angeles",
    "Store_name": "Apple Beverly Center",
    "Img_url": "https://www.apple.com/retail/beverlycenter/images/hero_medium.jpg",
    "Store_address": "8500 Beverly Boulevard, Los Angeles, CA, 90048",
    "Lat": 34.0753309,
    "Long": -118.3774933
  },
  {
    "Country": "United States",
    "Region": "California",
    "City": "Irvine",
    "Store_name": "Apple Irvine Spectrum Center",
    "Img_url": "https://www.apple.com/retail/irvinespectrumcenter/images/hero_medium.jpg",
    "Store_address": "763 Spectrum Center Drive, Irvine, CA, 92618",
    "Lat": 33.6495836,
    "Long": -117.7455393
  },
  {
    "Country": "Belgium",
    "Region": "NA",
    "City": "Apple Store",
    "Store_name": "Apple Brussels",
    "Img_url": "https://www.apple.com/befr/retail/brussels/images/hero_medium.jpg",
    "Store_address": "Avenue de la Toison d’Or 26/28, Bruxelles",
    "Lat": 50.8366475,
    "Long": 4.3582239
  },
  {
    "Country": "United Kingdom",
    "Region": "NA",
    "City": "Watford",
    "Store_name": "Apple Watford",
    "Img_url": "https://www.apple.com/uk/retail/watford/images/hero_medium.jpg",
    "Store_address": "Intu Watford Shopping Centre, Watford, WD17 2TN",
    "Lat": 51.655357,
    "Long": -0.3936
  },
  {
    "Country": "United Kingdom",
    "Region": "NA",
    "City": "Southampton",
    "Store_name": "Apple Southampton",
    "Img_url": "https://www.apple.com/uk/retail/southampton/images/hero_medium.jpg",
    "Store_address": "Upper Shopping, WestQuay Shopping Centre, Southampton, SO15 1QE",
    "Lat": 50.9041377,
    "Long": -1.4069693
  },
  {
    "Country": "United Kingdom",
    "Region": "NA",
    "City": "Solihull",
    "Store_name": "Apple Touchwood Centre",
    "Img_url": "https://www.apple.com/uk/retail/touchwoodcentre/images/hero_medium.jpg",
    "Store_address": "The Touchwood Centre, Crescent Arcade, Solihull, B91 3GJ",
    "Lat": 52.41253889999999,
    "Long": -1.7787299
  },
  {
    "Country": "United Kingdom",
    "Region": "NA",
    "City": "Sheffield",
    "Store_name": "Apple Meadowhall",
    "Img_url": "https://www.apple.com/uk/retail/meadowhall/images/hero_medium.jpg",
    "Store_address": "Upper High Street, Meadowhall Shopping Centre, Sheffield, S9 1EN",
    "Lat": 53.4139101,
    "Long": -1.4114022
  },
  {
    "Country": "United Kingdom",
    "Region": "NA",
    "City": "Reading",
    "Store_name": "Apple The Oracle",
    "Img_url": "https://www.apple.com/uk/retail/theoracle/images/hero_medium.jpg",
    "Store_address": "Upper Level, The Oracle Shopping Centre, Reading, RG1 2AG",
    "Lat": 51.453601,
    "Long": -0.9713883999999999
  },
  {
    "Country": "United Kingdom",
    "Region": "NA",
    "City": "Plymouth",
    "Store_name": "Apple Drake Circus",
    "Img_url": "https://www.apple.com/uk/retail/drakecircus/images/hero_medium.jpg",
    "Store_address": "1 Charles Street, Plymouth, PL1 1EA",
    "Lat": 50.3723681,
    "Long": -4.1385538
  },
  {
    "Country": "United Kingdom",
    "Region": "NA",
    "City": "Norwich",
    "Store_name": "Apple Chapelfield",
    "Img_url": "https://www.apple.com/uk/retail/chapelfield/images/hero_medium.jpg",
    "Store_address": "Merchants Hall, Chapelfield, Norwich, NR2 1SU",
    "Lat": 52.6256757,
    "Long": 1.2894734
  },
  {
    "Country": "United Kingdom",
    "Region": "NA",
    "City": "Newcastle upon Tyne",
    "Store_name": "Apple Eldon Square",
    "Img_url": "https://www.apple.com/uk/retail/eldonsquare/images/hero_medium.jpg",
    "Store_address": "St Andrew’s Way, Newcastle upon Tyne, NE1 7JB",
    "Lat": 54.97333980000001,
    "Long": -1.6186303
  },
  {
    "Country": "United Kingdom",
    "Region": "NA",
    "City": "Milton Keynes",
    "Store_name": "Apple Milton Keynes",
    "Img_url": "https://www.apple.com/uk/retail/miltonkeynes/images/hero_medium.jpg",
    "Store_address": "26 Midsummer Place, Midsummer Boulevard, Milton Keynes, MK9 3GB",
    "Lat": 52.04195499999999,
    "Long": -0.7577847999999999
  },
  {
    "Country": "United Kingdom",
    "Region": "NA",
    "City": "Manchester",
    "Store_name": "Apple Trafford Centre",
    "Img_url": "https://www.apple.com/uk/retail/traffordcentre/images/hero_medium.jpg",
    "Store_address": "146 Peel Avenue, Manchester, M17 8BL",
    "Lat": 53.465919,
    "Long": -2.34655
  },
  {
    "Country": "United Kingdom",
    "Region": "NA",
    "City": "Manchester",
    "Store_name": "Apple Manchester Arndale",
    "Img_url": "https://www.apple.com/uk/retail/manchesterarndale/images/hero_medium.jpg",
    "Store_address": "New Cannon Street Mall, Arndale Centre, Manchester, M4 3AJ",
    "Lat": 53.4836301,
    "Long": -2.2408697
  },
  {
    "Country": "United Kingdom",
    "Region": "NA",
    "City": "London",
    "Store_name": "Apple White City",
    "Img_url": "https://www.apple.com/uk/retail/whitecity/images/hero_medium.jpg",
    "Store_address": "Westfield London, Ariel Way, London, W12 7GF",
    "Lat": 51.50753100000001,
    "Long": -0.2211216
  },
  {
    "Country": "United Kingdom",
    "Region": "NA",
    "City": "London",
    "Store_name": "Apple Stratford City",
    "Img_url": "https://www.apple.com/uk/retail/stratfordcity/images/hero_medium.jpg",
    "Store_address": "The Arcade, Westfield Stratford City, London, E20 1EQ",
    "Lat": 51.5424018,
    "Long": -0.008922099999999999
  },
  {
    "Country": "United Kingdom",
    "Region": "NA",
    "City": "London",
    "Store_name": "Apple Regent Street",
    "Img_url": "https://www.apple.com/uk/retail/regentstreet/images/hero_medium.jpg",
    "Store_address": "235 Regent Street, London, W1B 2EL",
    "Lat": 51.5142637,
    "Long": -0.1418708
  },
  {
    "Country": "United Kingdom",
    "Region": "NA",
    "City": "London",
    "Store_name": "Apple Covent Garden",
    "Img_url": "https://www.apple.com/uk/retail/coventgarden/images/hero_medium.jpg",
    "Store_address": "No. 1-7 The Piazza, London, WC2E 8HB",
    "Lat": 51.51227369999999,
    "Long": -0.1234492
  },
  {
    "Country": "United Kingdom",
    "Region": "NA",
    "City": "London",
    "Store_name": "Apple Brent Cross",
    "Img_url": "https://www.apple.com/uk/retail/brentcross/images/hero_medium.jpg",
    "Store_address": "Upper West Mall, Brent Cross Shopping Centre, London, NW4 3FP",
    "Lat": 51.5763488,
    "Long": -0.2246912
  },
  {
    "Country": "United Kingdom",
    "Region": "NA",
    "City": "Liverpool",
    "Store_name": "Apple Liverpool",
    "Img_url": "https://www.apple.com/uk/retail/liverpool/images/hero_medium.jpg",
    "Store_address": "Liverpool One, Upper Level, South John Street, Liverpool, L1 8BU",
    "Lat": 53.4036796,
    "Long": -2.9863848
  },
  {
    "Country": "United Kingdom",
    "Region": "NA",
    "City": "Leicester",
    "Store_name": "Apple Highcross",
    "Img_url": "https://www.apple.com/uk/retail/highcross/images/hero_medium.jpg",
    "Store_address": "Upper Mall, Highcross, Leicester, LE1 4FT",
    "Lat": 52.6370668,
    "Long": -1.137104
  },
  {
    "Country": "United Kingdom",
    "Region": "NA",
    "City": "Leeds",
    "Store_name": "Apple Trinity Leeds",
    "Img_url": "https://www.apple.com/uk/retail/trinityleeds/images/hero_medium.jpg",
    "Store_address": "Albion Street, 209 Trinity Leeds, Leeds, LS1 5AR",
    "Lat": 53.7965105,
    "Long": -1.5444143
  },
  {
    "Country": "United Kingdom",
    "Region": "NA",
    "City": "Kingston upon Thames",
    "Store_name": "Apple Bentall Centre",
    "Img_url": "https://www.apple.com/uk/retail/bentallcentre/images/hero_medium.jpg",
    "Store_address": "The Bentall Centre, Wood Street, Kingston upon Thames, KT1 1TP",
    "Lat": 51.4116459,
    "Long": -0.3047765
  },
  {
    "Country": "United Kingdom",
    "Region": "NA",
    "City": "Greenhithe",
    "Store_name": "Apple Bluewater",
    "Img_url": "https://www.apple.com/uk/retail/bluewater/images/hero_medium.jpg",
    "Store_address": "Upper Mall, Greenhithe, DA9 9ST",
    "Lat": 51.4389018,
    "Long": 0.2713436
  },
  {
    "Country": "United Kingdom",
    "Region": "NA",
    "City": "Grays",
    "Store_name": "Apple Lakeside",
    "Img_url": "https://www.apple.com/uk/retail/lakeside/images/hero_medium.jpg",
    "Store_address": "West Thurrock Way, Lakeside Shopping Centre, Grays, RM20 2ZP",
    "Lat": 51.4874865,
    "Long": 0.2836034
  },
  {
    "Country": "United Kingdom",
    "Region": "NA",
    "City": "Glasgow",
    "Store_name": "Apple Buchanan Street",
    "Img_url": "https://www.apple.com/uk/retail/buchananstreet/images/hero_medium.jpg",
    "Store_address": "147 Buchanan Street, Glasgow, G1 2JX",
    "Lat": 55.86138399999999,
    "Long": -4.2540854
  },
  {
    "Country": "United Kingdom",
    "Region": "NA",
    "City": "Glasgow",
    "Store_name": "Apple Braehead",
    "Img_url": "https://www.apple.com/uk/retail/braehead/images/hero_medium.jpg",
    "Store_address": "Braehead Shopping Centre, Kings Inch Road, Glasgow, G51 4BP",
    "Lat": 55.8763728,
    "Long": -4.3646652
  },
  {
    "Country": "United Kingdom",
    "Region": "NA",
    "City": "Gateshead",
    "Store_name": "Apple Metrocentre",
    "Img_url": "https://www.apple.com/uk/retail/metrocentre/images/hero_medium.jpg",
    "Store_address": "Metrocentre, Gateshead, NE11 9YG",
    "Lat": 54.9568771,
    "Long": -1.6688983
  },
  {
    "Country": "United Kingdom",
    "Region": "NA",
    "City": "Exeter",
    "Store_name": "Apple Princesshay",
    "Img_url": "https://www.apple.com/uk/retail/princesshay/images/hero_medium.jpg",
    "Store_address": "24 Princesshay, Exeter, EX1 1GE",
    "Lat": 50.7245661,
    "Long": -3.5278732
  },
  {
    "Country": "United Kingdom",
    "Region": "NA",
    "City": "Edinburgh",
    "Store_name": "Apple Princes Street",
    "Img_url": "https://www.apple.com/uk/retail/princesstreet/images/hero_medium.jpg",
    "Store_address": "10 Princes Street, Edinburgh, EH2 2AN",
    "Lat": 55.95343810000001,
    "Long": -3.190246
  },
  {
    "Country": "United Kingdom",
    "Region": "NA",
    "City": "Cardiff",
    "Store_name": "Apple St David's 2",
    "Img_url": "https://www.apple.com/uk/retail/stdavids2/images/hero_medium.jpg",
    "Store_address": "63-66 Grand Arcade, St David’s Dewi Sant, Cardiff, CF10 2EL",
    "Lat": 51.4786875,
    "Long": -3.1747931
  },
  {
    "Country": "United Kingdom",
    "Region": "NA",
    "City": "Cambridge",
    "Store_name": "Apple Grand Arcade",
    "Img_url": "https://www.apple.com/uk/retail/grandarcade/images/hero_medium.jpg",
    "Store_address": "Grand Arcade Shopping Centre, Cambridge, CB2 3AX",
    "Lat": 52.20399219999999,
    "Long": 0.1218119
  },
  {
    "Country": "United Kingdom",
    "Region": "NA",
    "City": "Bromley",
    "Store_name": "Apple Bromley",
    "Img_url": "https://www.apple.com/uk/retail/bromley/images/hero_medium.jpg",
    "Store_address": "The Glades Bromley Shopping Centre, Bromley, BR1 1DN",
    "Lat": 51.40373,
    "Long": 0.016433
  },
  {
    "Country": "United Kingdom",
    "Region": "NA",
    "City": "Bristol",
    "Store_name": "Apple Cribbs Causeway",
    "Img_url": "https://www.apple.com/uk/retail/cribbscauseway/images/hero_medium.jpg",
    "Store_address": "Upper Mall, The Mall at Cribbs Causeway, Bristol, BS34 5DG",
    "Lat": 51.52562959999999,
    "Long": -2.5953967
  },
  {
    "Country": "United Kingdom",
    "Region": "NA",
    "City": "Bristol",
    "Store_name": "Apple Cabot Circus",
    "Img_url": "https://www.apple.com/uk/retail/cabotcircus/images/hero_medium.jpg",
    "Store_address": "11 Philadelphia Street, Quakers Friars, Cabot Circus, Bristol, BS1 3BZ",
    "Lat": 51.4567212,
    "Long": -2.5873205
  },
  {
    "Country": "United Kingdom",
    "Region": "NA",
    "City": "Brighton",
    "Store_name": "Apple Churchill Square",
    "Img_url": "https://www.apple.com/uk/retail/churchillsquare/images/hero_medium.jpg",
    "Store_address": "Upper Mall, Churchill Square, Brighton, BN1 2TE",
    "Lat": 50.822238,
    "Long": -0.1456064
  },
  {
    "Country": "United Kingdom",
    "Region": "NA",
    "City": "Birmingham",
    "Store_name": "Apple Birmingham",
    "Img_url": "https://www.apple.com/uk/retail/birmingham/images/hero_medium.jpg",
    "Store_address": "128 New Street, Birmingham, B2 4DB",
    "Lat": 52.4787872,
    "Long": -1.8984293
  },
  {
    "Country": "United Kingdom",
    "Region": "NA",
    "City": "Belfast",
    "Store_name": "Apple Victoria Square",
    "Img_url": "https://www.apple.com/uk/retail/victoriasquare/images/hero_medium.jpg",
    "Store_address": "Upper Ground Floor, 1 Victoria Square, Belfast, BT1 4QG",
    "Lat": 54.5979334,
    "Long": -5.925737300000001
  },
  {
    "Country": "United Kingdom",
    "Region": "NA",
    "City": "Bath",
    "Store_name": "Apple SouthGate",
    "Img_url": "https://www.apple.com/uk/retail/southgate/images/hero_medium.jpg",
    "Store_address": "SU39, Southgate Place, Bath, BA1 1AP",
    "Lat": 51.3789678,
    "Long": -2.3580193
  },
  {
    "Country": "United Kingdom",
    "Region": "NA",
    "City": "Basingstoke",
    "Store_name": "Apple Festival Place",
    "Img_url": "https://www.apple.com/uk/retail/festivalplace/images/hero_medium.jpg",
    "Store_address": "Upper Level, Queen Anne’s Walk, Basingstoke, RG21 7BE",
    "Lat": 51.2651565,
    "Long": -1.0861701
  },
  {
    "Country": "United Kingdom",
    "Region": "NA",
    "City": "Aberdeen",
    "Store_name": "Apple Union Square",
    "Img_url": "https://www.apple.com/uk/retail/unionsquare/images/hero_medium.jpg",
    "Store_address": "27/28 Ground Level Mall, Union Square, Guild Square, Aberdeen, AB11 5PN",
    "Lat": 57.143324,
    "Long": -2.096267
  },
  {
    "Country": "United Arab Emirates",
    "Region": "NA",
    "City": "Dubai",
    "Store_name": "Apple Mall of the Emirates",
    "Img_url": "https://www.apple.com/ae/retail/malloftheemirates/images/hero_medium.jpg",
    "Store_address": "Mall of the Emirates, Al Barsha 1, Dubai",
    "Lat": 25.118107,
    "Long": 55.200608
  },
  {
    "Country": "United Arab Emirates",
    "Region": "NA",
    "City": "Dubai",
    "Store_name": "Apple Dubai Mall",
    "Img_url": "https://www.apple.com/ae/retail/dubaimall/images/hero_medium.jpg",
    "Store_address": "The Dubai Mall, Downtown, Dubai",
    "Lat": 25.198518,
    "Long": 55.279619
  },
  {
    "Country": "United Arab Emirates",
    "Region": "NA",
    "City": "Abu Dhabi",
    "Store_name": "Apple Yas Mall",
    "Img_url": "https://www.apple.com/ae/retail/yasmall/images/hero_medium.jpg",
    "Store_address": "Yas Mall, Yas Island, Abu Dhabi",
    "Lat": 24.4885048,
    "Long": 54.6087777
  },
  {
    "Country": "Turkey",
    "Region": "NA",
    "City": "Üsküdar İstanbul",
    "Store_name": "Apple Akasya",
    "Img_url": "https://www.apple.com/tr/retail/akasya/images/hero_medium.jpg",
    "Store_address": "Akasya AVM, Acıbadem Mahallesi, Çeçen Sok. No : 25, Üsküdar İstanbul, 34660",
    "Lat": 41.0005512,
    "Long": 29.0546255
  },
  {
    "Country": "Turkey",
    "Region": "NA",
    "City": "Beşiktaş İstanbul",
    "Store_name": "Apple Zorlu Center",
    "Img_url": "https://www.apple.com/tr/retail/zorlucenter/images/hero_medium.jpg",
    "Store_address": "Zorlu Center, Koru Sok. No:2, Beşiktaş İstanbul, 34340",
    "Lat": 41.0663094,
    "Long": 29.0178135
  },
  {
    "Country": "Switzerland",
    "Region": "NA",
    "City": "Zurich",
    "Store_name": "Apple Bahnhofstrasse",
    "Img_url": "https://www.apple.com/chfr/retail/bahnhofstrasse/images/hero_medium.jpg",
    "Store_address": "Bahnhofstrasse 77, 8001, Zurich",
    "Lat": 47.3750447,
    "Long": 8.5386286
  },
  {
    "Country": "Switzerland",
    "Region": "NA",
    "City": "Glattzentrum bei Wallisellen",
    "Store_name": "Apple Glattzentrum",
    "Img_url": "https://www.apple.com/chfr/retail/glattzentrum/images/hero_medium.jpg",
    "Store_address": "Einkaufszentrum Glatt, Neue Winterthurerstrasse 99, 8304, Wallisellen",
    "Lat": 47.4086836,
    "Long": 8.5955786
  },
  {
    "Country": "Switzerland",
    "Region": "NA",
    "City": "Geneva",
    "Store_name": "Apple Rue de Rive",
    "Img_url": "https://www.apple.com/chfr/retail/ruederive/images/hero_medium.jpg",
    "Store_address": "Rue de Rive 4, 1204, Genève",
    "Lat": 46.2022583,
    "Long": 6.150247999999999
  },
  {
    "Country": "Switzerland",
    "Region": "NA",
    "City": "Basel",
    "Store_name": "Apple Freie Strasse",
    "Img_url": "https://www.apple.com/chfr/retail/freiestrasse/images/hero_medium.jpg",
    "Store_address": "Freie Strasse 47, 4001, Bâle",
    "Lat": 47.5563245,
    "Long": 7.590213599999999
  },
  {
    "Country": "Sweden",
    "Region": "NA",
    "City": "Täby",
    "Store_name": "Apple Täby Centrum",
    "Img_url": "https://www.apple.com/se/retail/tabycentrum/images/hero_medium.jpg",
    "Store_address": "Täby Centrum, Stora Marknadsvägen 15, 183 34, Täby",
    "Lat": 59.44510239999999,
    "Long": 18.0716943
  },
  {
    "Country": "Sweden",
    "Region": "NA",
    "City": "Malmö",
    "Store_name": "Apple Emporia",
    "Img_url": "https://www.apple.com/se/retail/emporia/images/hero_medium.jpg",
    "Store_address": "Emporia, Hyllie Boulevard 19, 215 32, Malmö",
    "Lat": 55.5644523,
    "Long": 12.9733944
  },
  {
    "Country": "Sweden",
    "Region": "NA",
    "City": "Helsingborg",
    "Store_name": "Apple Väla Centrum",
    "Img_url": "https://www.apple.com/se/retail/valacentrum/images/hero_medium.jpg",
    "Store_address": "Väla Centrum, Marknadsvägen 9, 260 36, Helsingborg",
    "Lat": 56.0912443,
    "Long": 12.7571488
  },
  {
    "Country": "Spain",
    "Region": "NA",
    "City": "Zaragoza",
    "Store_name": "Apple Puerto Venecia",
    "Img_url": "https://www.apple.com/es/retail/puertovenecia/images/hero_medium.jpg",
    "Store_address": "Puerto Venecia Shopping Resort, The Gallery, Avda. Puerto Venecia, s/n, 50021, Zaragoza, Zaragoza",
    "Lat": 41.6090495,
    "Long": -0.8861391999999999
  },
  {
    "Country": "Spain",
    "Region": "NA",
    "City": "Valencia",
    "Store_name": "Apple Calle Colón",
    "Img_url": "https://www.apple.com/es/retail/callecolon/images/hero_medium.jpg",
    "Store_address": "Calle Colón, 25, 46004, Valencia, Valencia",
    "Lat": 39.4690584,
    "Long": -0.3724489
  },
  {
    "Country": "Spain",
    "Region": "NA",
    "City": "Majadahonda",
    "Store_name": "Apple Gran Plaza 2",
    "Img_url": "https://www.apple.com/es/retail/granplaza2/images/hero_medium.jpg",
    "Store_address": "Centro Comercial Gran Plaza 2, Calle de los Químicos, 1, 28222, Majadahonda, Madrid",
    "Lat": 40.4912304,
    "Long": -3.8984243
  },
  {
    "Country": "Spain",
    "Region": "NA",
    "City": "Madrid",
    "Store_name": "Apple Puerta del Sol",
    "Img_url": "https://www.apple.com/es/retail/puertadelsol/images/hero_medium.jpg",
    "Store_address": "Plaza de la Puerta del Sol, 1, 28013, Madrid, Madrid",
    "Lat": 40.4169305,
    "Long": -3.7020877
  },
  {
    "Country": "Spain",
    "Region": "NA",
    "City": "Leganés",
    "Store_name": "Apple Parquesur",
    "Img_url": "https://www.apple.com/es/retail/parquesur/images/hero_medium.jpg",
    "Store_address": "Centro Comercial Parquesur, Avenida Gran Bretaña s/n, 28916, Leganés, Madrid",
    "Lat": 40.3402272,
    "Long": -3.7330555
  },
  {
    "Country": "Spain",
    "Region": "NA",
    "City": "Churra",
    "Store_name": "Apple Nueva Condomina",
    "Img_url": "https://www.apple.com/es/retail/nuevacondomina/images/hero_medium.jpg",
    "Store_address": "Centro Comercial Nueva Condomina, Autovía A-7, km 760, 30110, Murcia",
    "Lat": 38.0402273,
    "Long": -1.1484682
  },
  {
    "Country": "Spain",
    "Region": "NA",
    "City": "Barcelona",
    "Store_name": "Apple Passeig de Gràcia",
    "Img_url": "https://www.apple.com/es/retail/passeigdegracia/images/hero_medium.jpg",
    "Store_address": "Passeig de Gràcia, 1, 08007, Barcelona, Barcelona",
    "Lat": 41.3880651,
    "Long": 2.1694585
  },
  {
    "Country": "Spain",
    "Region": "NA",
    "City": "Barcelona",
    "Store_name": "Apple La Maquinista",
    "Img_url": "https://www.apple.com/es/retail/lamaquinista/images/hero_medium.jpg",
    "Store_address": "Centro comercial La Maquinista, Passeig de Potosí, 2, 08030, Barcelona, Barcelona",
    "Lat": 41.44083089999999,
    "Long": 2.1984927
  },
  {
    "Country": "Spain",
    "Region": "NA",
    "City": "Arroyomolinos",
    "Store_name": "Apple Xanadú",
    "Img_url": "https://www.apple.com/es/retail/xanadu/images/hero_medium.jpg",
    "Store_address": "Centro comercial de Ocio Madrid Xanadú, Carretera N-V, Km 23,5, 28939, Arroyomolinos, Madrid",
    "Lat": 40.29905710000001,
    "Long": -3.9265886
  },
  {
    "Country": "Spain",
    "Region": "NA",
    "City": "Arroyo de la Encomienda",
    "Store_name": "Apple Río Shopping",
    "Img_url": "https://www.apple.com/es/retail/rioshopping/images/hero_medium.jpg",
    "Store_address": "Centro Comercial Río Shopping, Calle Me falta un tornillo, 5, 47195, Arroyo de la Encomienda, Valladolid",
    "Lat": 41.6278887,
    "Long": -4.786675499999999
  },
  {
    "Country": "Singapore",
    "Region": "NA",
    "City": "Singapore",
    "Store_name": "Apple Orchard Road",
    "Img_url": "https://www.apple.com/sg/retail/orchardroad/images/hero_medium.jpg",
    "Store_address": "270 Orchard Road, Singapore, 238857",
    "Lat": 1.3029904,
    "Long": 103.8362536
  },
  {
    "Country": "South Korea",
    "Region": "NA",
    "City": "Seoul",
    "Store_name": "Apple 가로수길",
    "Img_url": "https://www.apple.com/kr/retail/garosugil/images/hero_medium.jpg",
    "Store_address": "서울 강남구, 압구정로 12길 46",
    "Lat": 37.5209771,
    "Long": 127.0225042
  },
  {
    "Country": "Mexico",
    "Region": "NA",
    "City": "Cuajimalpa de Morelos",
    "Store_name": "Apple Vía Santa Fe",
    "Img_url": "https://www.apple.com/mx/retail/viasantafe/images/hero_medium.jpg",
    "Store_address": "Avenida Vasco de Quiroga 3800, Lomas de Santa Fe, Antigua Mina de Totolapa, CP 05109, Del. Cuajimalpa, CDMX",
    "Lat": 19.3615565,
    "Long": -99.2758083
  },
  {
    "Country": "Japan",
    "Region": "NA",
    "City": "Shibuya-ku ",
    "Store_name": "Apple 渋谷（休業中）",
    "Img_url": "https://www.apple.com/jp/retail/shibuya/images/hero_medium.jpg",
    "Store_address": "150-0041, 東京都渋谷区神南1-20-9, 公園通りビル",
    "Lat": 35.661931,
    "Long": 139.699798
  },
  {
    "Country": "Japan",
    "Region": "NA",
    "City": "Shibuya-ku ",
    "Store_name": "Apple 表参道",
    "Img_url": "https://www.apple.com/jp/retail/omotesando/images/hero_medium.jpg",
    "Store_address": "150-0001, 東京都渋谷区神宮前4-2-13",
    "Lat": 35.6662159,
    "Long": 139.7109026
  },
  {
    "Country": "Japan",
    "Region": "NA",
    "City": "Sendai-shi ",
    "Store_name": "Apple 仙台一番町",
    "Img_url": "https://www.apple.com/jp/retail/sendaiichibancho/images/hero_medium.jpg",
    "Store_address": "980-0811, 宮城県仙台市青葉区一番町3-10-24",
    "Lat": 38.261688,
    "Long": 140.8711864
  },
  {
    "Country": "Japan",
    "Region": "NA",
    "City": "Osaka-shi ",
    "Store_name": "Apple 心斎橋",
    "Img_url": "https://www.apple.com/jp/retail/shinsaibashi/images/hero_medium.jpg",
    "Store_address": "542-0086, 大阪府大阪市中央区西心斎橋1-5-5, アーバンBLD心斎橋",
    "Lat": 34.672077,
    "Long": 135.500021
  },
  {
    "Country": "Japan",
    "Region": "NA",
    "City": "Nagoya-shi ",
    "Store_name": "Apple 名古屋栄",
    "Img_url": "https://www.apple.com/jp/retail/nagoyasakae/images/hero_medium.jpg",
    "Store_address": "460-0008, 愛知県名古屋市中区栄3-17-15, エフエックスビル",
    "Lat": 35.1655033,
    "Long": 136.9069685
  },
  {
    "Country": "Japan",
    "Region": "NA",
    "City": "Fukuoka-shi ",
    "Store_name": "Apple 福岡天神",
    "Img_url": "https://www.apple.com/jp/retail/fukuokatenjin/images/hero_medium.jpg",
    "Store_address": "810-0001, 福岡県福岡市中央区天神2-3-24, 天神ルーチェ",
    "Lat": 33.58681320000001,
    "Long": 130.3976823
  },
  {
    "Country": "Japan",
    "Region": "NA",
    "City": "Chuo-ku ",
    "Store_name": "Apple 銀座",
    "Img_url": "https://www.apple.com/jp/retail/ginza/images/hero_medium.jpg",
    "Store_address": "104-0061, 東京都中央区銀座3-5-12, サヱグサビル本館",
    "Lat": 35.672256,
    "Long": 139.765812
  },
  {
    "Country": "Italy",
    "Region": "NA",
    "City": "Torino",
    "Store_name": "Apple Via Roma",
    "Img_url": "https://www.apple.com/it/retail/viaroma/images/hero_medium.jpg",
    "Store_address": "Via Roma, 82, 10121, Torino",
    "Lat": 45.0692083,
    "Long": 7.683433999999999
  },
  {
    "Country": "Italy",
    "Region": "NA",
    "City": "Rozzano",
    "Store_name": "Apple Fiordaliso",
    "Img_url": "https://www.apple.com/it/retail/fiordaliso/images/hero_medium.jpg",
    "Store_address": "Centro Commerciale Fiordaliso, Via Curiel, 25, 20089, Rozzano, Milano",
    "Lat": 45.3919962,
    "Long": 9.176129399999999
  },
  {
    "Country": "Italy",
    "Region": "NA",
    "City": "Roma Lunghezza",
    "Store_name": "Apple RomaEst",
    "Img_url": "https://www.apple.com/it/retail/romaest/images/hero_medium.jpg",
    "Store_address": "Centro commerciale RomaEst, Via Collatina, 858, 00132, Lunghezza, Roma",
    "Lat": 41.913728,
    "Long": 12.6610623
  },
  {
    "Country": "Italy",
    "Region": "NA",
    "City": "Roma EUR",
    "Store_name": "Apple Euroma2",
    "Img_url": "https://www.apple.com/it/retail/euroma2/images/hero_medium.jpg",
    "Store_address": "Centro Commerciale Euroma2, Viale dell'Oceano Pacifico, 83, 00144, EUR, Roma",
    "Lat": 41.81707300000001,
    "Long": 12.4595669
  },
  {
    "Country": "Italy",
    "Region": "NA",
    "City": "Roma Bufalotta",
    "Store_name": "Apple Porta di Roma",
    "Img_url": "https://www.apple.com/it/retail/portadiroma/images/hero_medium.jpg",
    "Store_address": "Galleria Porta di Roma, Via Alberto Lionello, 201, 00139, Bufalotta, Roma",
    "Lat": 41.972031,
    "Long": 12.540876
  },
  {
    "Country": "Italy",
    "Region": "NA",
    "City": "Rimini",
    "Store_name": "Apple Le Befane",
    "Img_url": "https://www.apple.com/it/retail/lebefane/images/hero_medium.jpg",
    "Store_address": "Centro Commerciale Le Befane, Via Caduti di Nassiriya, 20, 47900, Rimini",
    "Lat": 44.0396161,
    "Long": 12.5868451
  },
  {
    "Country": "Italy",
    "Region": "NA",
    "City": "Orio al Serio",
    "Store_name": "Apple Oriocenter",
    "Img_url": "https://www.apple.com/it/retail/oriocenter/images/hero_medium.jpg",
    "Store_address": "Centro commerciale Oriocenter, Via Portico, 71, 24050, Orio al Serio, Bergamo",
    "Lat": 45.66421949999999,
    "Long": 9.694914299999999
  },
  {
    "Country": "Italy",
    "Region": "NA",
    "City": "Misterbianco",
    "Store_name": "Apple Centro Sicilia",
    "Img_url": "https://www.apple.com/it/retail/centrosicilia/images/hero_medium.jpg",
    "Store_address": "Strada provinciale 54 - Località La Tenutella, Contrada Cubba, 95045, Misterbianco, Catania",
    "Lat": 37.477801,
    "Long": 15.008424
  },
  {
    "Country": "Italy",
    "Region": "NA",
    "City": "Mestre",
    "Store_name": "Apple Nave de Vero",
    "Img_url": "https://www.apple.com/it/retail/navedevero/images/hero_medium.jpg",
    "Store_address": "Centro commerciale Nave de Vero, Via Arduino - Marghera, 30175, Mestre, Venezia",
    "Lat": 45.4595237,
    "Long": 12.2125422
  },
  {
    "Country": "Italy",
    "Region": "NA",
    "City": "Marcianise",
    "Store_name": "Apple Campania",
    "Img_url": "https://www.apple.com/it/retail/campania/images/hero_medium.jpg",
    "Store_address": "Centro Commerciale Campania, S.S. Sannitica 87 - Località Aurno, 81025, Marcianise, Caserta",
    "Lat": 41.00376989999999,
    "Long": 14.3280957
  },
  {
    "Country": "Italy",
    "Region": "NA",
    "City": "Lonato",
    "Store_name": "Apple il Leone",
    "Img_url": "https://www.apple.com/it/retail/illeone/images/hero_medium.jpg",
    "Store_address": "Il Leone Shopping Center, Via Mantova, 36, 25017, Lonato, Brescia",
    "Lat": 45.430895,
    "Long": 10.514192
  },
  {
    "Country": "Italy",
    "Region": "NA",
    "City": "Grugliasco",
    "Store_name": "Apple Le Gru",
    "Img_url": "https://www.apple.com/it/retail/legru/images/hero_medium.jpg",
    "Store_address": "Centro commerciale Le Gru, Via Crea, 10, 10095, Grugliasco, Torino",
    "Lat": 45.05632,
    "Long": 7.612633400000001
  },
  {
    "Country": "Italy",
    "Region": "NA",
    "City": "Firenze",
    "Store_name": "Apple Firenze",
    "Img_url": "https://www.apple.com/it/retail/firenze/images/hero_medium.jpg",
    "Store_address": "Piazza della Repubblica, 50123, Firenze",
    "Lat": 43.77151600000001,
    "Long": 11.2540061
  },
  {
    "Country": "Italy",
    "Region": "NA",
    "City": "Carugate",
    "Store_name": "Apple Carosello",
    "Img_url": "https://www.apple.com/it/retail/carosello/images/hero_medium.jpg",
    "Store_address": "Centro Commerciale Carosello, Strada Provinciale 208 KM 2, 20061, Carugate, Milano",
    "Lat": 45.54622519999999,
    "Long": 9.329108399999999
  },
  {
    "Country": "Italy",
    "Region": "NA",
    "City": "Campi Bisenzio",
    "Store_name": "Apple I Gigli",
    "Img_url": "https://www.apple.com/it/retail/igigli/images/hero_medium.jpg",
    "Store_address": "Centro Commerciale I Gigli, Via San Quirico, 165, 50013, Campi Bisenzio, Firenze",
    "Lat": 43.8470438,
    "Long": 11.1431458
  },
  {
    "Country": "Italy",
    "Region": "NA",
    "City": "Bologna",
    "Store_name": "Apple Via Rizzoli",
    "Img_url": "https://www.apple.com/it/retail/viarizzoli/images/hero_medium.jpg",
    "Store_address": "Via Rizzoli, 16, 40125, Bologna",
    "Lat": 44.4947539,
    "Long": 11.3442763
  },
  {
    "Country": "Hong Kong",
    "Region": "NA",
    "City": "Hong Kong",
    "Store_name": "Apple New Town Plaza",
    "Img_url": "https://www.apple.com/hk/en/retail/newtownplaza/images/hero_medium.jpg",
    "Store_address": "New Town Plaza Phase 1 L4, 18 Sha Tin Centre Street, Sha Tin, Hong Kong",
    "Lat": 22.3821679,
    "Long": 114.1880571
  },
  {
    "Country": "Hong Kong",
    "Region": "NA",
    "City": "Hong Kong",
    "Store_name": "Apple ifc mall",
    "Img_url": "https://www.apple.com/hk/en/retail/ifcmall/images/hero_medium.jpg",
    "Store_address": "International Finance Centre, 8 Finance Street, Central, Hong Kong",
    "Lat": 22.285232,
    "Long": 114.1592596
  },
  {
    "Country": "Hong Kong",
    "Region": "NA",
    "City": "Hong Kong",
    "Store_name": "Apple Festival Walk",
    "Img_url": "https://www.apple.com/hk/en/retail/festivalwalk/images/hero_medium.jpg",
    "Store_address": "Festival Walk, 80 Tat Chee Avenue, Kowloon Tong, Hong Kong",
    "Lat": 22.3372971,
    "Long": 114.1745273
  },
  {
    "Country": "Hong Kong",
    "Region": "NA",
    "City": "Hong Kong",
    "Store_name": "Apple Causeway Bay",
    "Img_url": "https://www.apple.com/hk/en/retail/causewaybay/images/hero_medium.jpg",
    "Store_address": "Hysan Place, 500 Hennessy Road, Causeway Bay, Hong Kong",
    "Lat": 22.2798079,
    "Long": 114.1837883
  },
  {
    "Country": "Hong Kong",
    "Region": "NA",
    "City": "Hong Kong",
    "Store_name": "Apple Canton Road",
    "Img_url": "https://www.apple.com/hk/en/retail/cantonroad/images/hero_medium.jpg",
    "Store_address": "100 Canton Road, Tsim Sha Tsui, Hong Kong",
    "Lat": 22.299129,
    "Long": 114.1687871
  },
  {
    "Country": "Hong Kong",
    "Region": "NA",
    "City": "Hong Kong",
    "Store_name": "Apple apm Hong Kong",
    "Img_url": "https://www.apple.com/hk/en/retail/apmhongkong/images/hero_medium.jpg",
    "Store_address": "418 Kwun Tong Road, Kwun Tong, Hong Kong",
    "Lat": 22.3122535,
    "Long": 114.2251183
  },
  {
    "Country": "Germany",
    "Region": "NA",
    "City": "Sulzbach",
    "Store_name": "Apple MTZ",
    "Img_url": "https://www.apple.com/de/retail/mtz/images/hero_medium.jpg",
    "Store_address": "Main-Taunus-Zentrum, 65843, Sulzbach",
    "Lat": 50.11823150000001,
    "Long": 8.5276096
  },
  {
    "Country": "Macao",
    "Region": "NA",
    "City": "Macao",
    "Store_name": "Apple 澳門銀河",
    "Img_url": "https://www.apple.com/mo/retail/galaxymacau/images/hero_medium.jpg",
    "Store_address": "路氹城, 澳門銀河™時尚匯, 澳門",
    "Lat": 22.150522,
    "Long": 113.552385
  },
  {
    "Country": "Germany",
    "Region": "NA",
    "City": "Sindelfingen",
    "Store_name": "Apple Sindelfingen",
    "Img_url": "https://www.apple.com/de/retail/sindelfingen/images/hero_medium.jpg",
    "Store_address": "Breuningerland Sindelfingen, Tilsiter Straße 15, 71065, Sindelfingen",
    "Lat": 48.704283,
    "Long": 9.03188
  },
  {
    "Country": "Germany",
    "Region": "NA",
    "City": "Oberhausen",
    "Store_name": "Apple CentrO",
    "Img_url": "https://www.apple.com/de/retail/centro/images/hero_medium.jpg",
    "Store_address": "CentrO Oberhausen, Centroallee 147, 46047, Oberhausen",
    "Lat": 51.490188,
    "Long": 6.8790825
  },
  {
    "Country": "Germany",
    "Region": "NA",
    "City": "Munich",
    "Store_name": "Apple Rosenstraße",
    "Img_url": "https://www.apple.com/de/retail/rosenstrasse/images/hero_medium.jpg",
    "Store_address": "Rosenstraße 1, 80331, München",
    "Lat": 48.1372106,
    "Long": 11.5747672
  },
  {
    "Country": "Germany",
    "Region": "NA",
    "City": "Munich",
    "Store_name": "Apple OEZ",
    "Img_url": "https://www.apple.com/de/retail/oez/images/hero_medium.jpg",
    "Store_address": "Olympia-Einkaufszentrum, Hanauer Straße 68, 80993, München",
    "Lat": 48.1833287,
    "Long": 11.5316432
  },
  {
    "Country": "Germany",
    "Region": "NA",
    "City": "Hannover",
    "Store_name": "Apple Hannover",
    "Img_url": "https://www.apple.com/de/retail/hannover/images/hero_medium.jpg",
    "Store_address": "Bahnhofstraße 5, 30159, Hannover",
    "Lat": 52.375047,
    "Long": 9.739572899999999
  },
  {
    "Country": "Germany",
    "Region": "NA",
    "City": "Hamburg",
    "Store_name": "Apple Jungfernstieg",
    "Img_url": "https://www.apple.com/de/retail/jungfernstieg/images/hero_medium.jpg",
    "Store_address": "Jungfernstieg 12, 20354, Hamburg",
    "Lat": 53.552808,
    "Long": 9.992622299999999
  },
  {
    "Country": "Germany",
    "Region": "NA",
    "City": "Hamburg",
    "Store_name": "Apple Alstertal",
    "Img_url": "https://www.apple.com/de/retail/alstertal/images/hero_medium.jpg",
    "Store_address": "Alstertal-Einkaufszentrum, Poppenbüttel, 22391, Hamburg",
    "Lat": 53.6542666,
    "Long": 10.091003
  },
  {
    "Country": "Germany",
    "Region": "NA",
    "City": "Frankfurt",
    "Store_name": "Apple Große Bockenheimer Straße",
    "Img_url": "https://www.apple.com/de/retail/grossebockenheimerstrasse/images/hero_medium.jpg",
    "Store_address": "Große Bockenheimer Straße 30, 60313, Frankfurt",
    "Lat": 50.1147256,
    "Long": 8.6749391
  },
  {
    "Country": "Germany",
    "Region": "NA",
    "City": "Düsseldorf",
    "Store_name": "Apple Düsseldorf",
    "Img_url": "https://www.apple.com/de/retail/duesseldorf/images/hero_medium.jpg",
    "Store_address": "Kö-Bogen, Königsallee 2, 40212, Düsseldorf",
    "Lat": 51.2270743,
    "Long": 6.780602399999999
  },
  {
    "Country": "Germany",
    "Region": "NA",
    "City": "Dresden",
    "Store_name": "Apple Altmarkt-Galerie",
    "Img_url": "https://www.apple.com/de/retail/altmarkt-galerie/images/hero_medium.jpg",
    "Store_address": "Altmarkt 25, 01067, Dresden",
    "Lat": 51.0502245,
    "Long": 13.7361342
  },
  {
    "Country": "Germany",
    "Region": "NA",
    "City": "Cologne",
    "Store_name": "Apple Schildergasse",
    "Img_url": "https://www.apple.com/de/retail/schildergasse/images/hero_medium.jpg",
    "Store_address": "Schildergasse 1-9, 50667, Köln",
    "Lat": 50.9369035,
    "Long": 6.9561101
  },
  {
    "Country": "Germany",
    "Region": "NA",
    "City": "Cologne",
    "Store_name": "Apple Rhein Center",
    "Img_url": "https://www.apple.com/de/retail/rheincenter/images/hero_medium.jpg",
    "Store_address": "Rhein Center Köln-Weiden, Aachener Straße 1253, 50858, Köln",
    "Lat": 50.9375406,
    "Long": 6.835388
  },
  {
    "Country": "Germany",
    "Region": "NA",
    "City": "Berlin",
    "Store_name": "Apple Kurfürstendamm",
    "Img_url": "https://www.apple.com/de/retail/kurfuerstendamm/images/hero_medium.jpg",
    "Store_address": "Kurfürstendamm 26, 10719, Berlin",
    "Lat": 52.5035914,
    "Long": 13.3287535
  },
  {
    "Country": "Germany",
    "Region": "NA",
    "City": "Augsburg",
    "Store_name": "Apple City-Galerie",
    "Img_url": "https://www.apple.com/de/retail/city-galerie/images/hero_medium.jpg",
    "Store_address": "City-Galerie Augsburg, Willy-Brandt-Platz 1, 86153, Augsburg",
    "Lat": 48.3655553,
    "Long": 10.9071592
  },
  {
    "Country": "France",
    "Region": "NA",
    "City": "Velizy-Villacoublay",
    "Store_name": "Apple Vélizy 2",
    "Img_url": "https://www.apple.com/fr/retail/velizy2/images/hero_medium.jpg",
    "Store_address": "2 Avenue de l’Europe, 78140, Vélizy-Villacoublay",
    "Lat": 48.7806604,
    "Long": 2.2202522
  },
  {
    "Country": "France",
    "Region": "NA",
    "City": "Strasbourg",
    "Store_name": "Apple Strasbourg",
    "Img_url": "https://www.apple.com/fr/retail/strasbourg/images/hero_medium.jpg",
    "Store_address": "L’Aubette, Place Kléber, 67000, Strasbourg",
    "Lat": 48.5838715,
    "Long": 7.745852600000001
  },
  {
    "Country": "France",
    "Region": "NA",
    "City": "Saint Herblain",
    "Store_name": "Apple Atlantis",
    "Img_url": "https://www.apple.com/fr/retail/atlantis/images/hero_medium.jpg",
    "Store_address": "Galerie Atlantis Le Centre, 44811, Saint Herblain",
    "Lat": 47.224173,
    "Long": -1.631512
  },
  {
    "Country": "France",
    "Region": "NA",
    "City": "Rosny-Sous-Bois",
    "Store_name": "Apple Rosny 2",
    "Img_url": "https://www.apple.com/fr/retail/rosny2/images/hero_medium.jpg",
    "Store_address": "Centre Commercial Rosny 2, Avenue du Général-de-Gaulle, 93117, Rosny-Sous-Bois",
    "Lat": 48.883567,
    "Long": 2.4776141
  },
  {
    "Country": "France",
    "Region": "NA",
    "City": "Puteaux - la Defense",
    "Store_name": "Apple Les Quatre Temps",
    "Img_url": "https://www.apple.com/fr/retail/lesquatretemps/images/hero_medium.jpg",
    "Store_address": "Centre commercial Les Quatre Temps, 15 Parvis de la Défense, 92800, Puteaux - la Défense",
    "Lat": 48.890763,
    "Long": 2.2373349
  },
  {
    "Country": "France",
    "Region": "NA",
    "City": "Paris",
    "Store_name": "Apple Opéra",
    "Img_url": "https://www.apple.com/fr/retail/opera/images/hero_medium.jpg",
    "Store_address": "12 rue Halévy, 75009, Paris",
    "Lat": 48.872272,
    "Long": 2.3333437
  },
  {
    "Country": "France",
    "Region": "NA",
    "City": "Paris",
    "Store_name": "Apple Marché Saint-Germain",
    "Img_url": "https://www.apple.com/fr/retail/marchesaintgermain/images/hero_medium.jpg",
    "Store_address": "9 rue Clément, 75006, Paris",
    "Lat": 48.8524138,
    "Long": 2.3358901
  },
  {
    "Country": "France",
    "Region": "NA",
    "City": "Paris",
    "Store_name": "Apple Carrousel du Louvre",
    "Img_url": "https://www.apple.com/fr/retail/carrouseldulouvre/images/hero_medium.jpg",
    "Store_address": "99 rue de Rivoli, 75001, Paris",
    "Lat": 48.8617864,
    "Long": 2.3340278
  },
  {
    "Country": "France",
    "Region": "NA",
    "City": "Nice",
    "Store_name": "Apple CAP 3000",
    "Img_url": "https://www.apple.com/fr/retail/cap3000/images/hero_medium.jpg",
    "Store_address": "Avenue Eugène Donadeï, Saint-Laurent Du Var, 06700, Nice",
    "Lat": 43.6595294,
    "Long": 7.195233200000001
  },
  {
    "Country": "France",
    "Region": "NA",
    "City": "Montpellier",
    "Store_name": "Apple Odysseum",
    "Img_url": "https://www.apple.com/fr/retail/odysseum/images/hero_medium.jpg",
    "Store_address": "Centre Commercial Odysseum, Zone Odysseum Zac Port Marianne, 34000, Montpellier",
    "Lat": 43.603846,
    "Long": 3.920935
  },
  {
    "Country": "France",
    "Region": "NA",
    "City": "Marseille",
    "Store_name": "Apple Marseille",
    "Img_url": "https://www.apple.com/fr/retail/marseille/images/hero_medium.jpg",
    "Store_address": "Les Terrasses du Port, 9 Quai du Lazaret, 13002, Marseille",
    "Lat": 43.3060696,
    "Long": 5.3648533
  },
  {
    "Country": "France",
    "Region": "NA",
    "City": "Marne-la-Vallee",
    "Store_name": "Apple Val d’Europe",
    "Img_url": "https://www.apple.com/fr/retail/valdeurope/images/hero_medium.jpg",
    "Store_address": "Centre Commercial Val d’Europe, 14, cours du Danube - Serris, 77711, Marne-la-Vallée",
    "Lat": 48.85509829999999,
    "Long": 2.7800922
  },
  {
    "Country": "France",
    "Region": "NA",
    "City": "Lyon",
    "Store_name": "Apple Part-Dieu",
    "Img_url": "https://www.apple.com/fr/retail/part-dieu/images/hero_medium.jpg",
    "Store_address": "Centre commercial La Part-Dieu, 69003, Lyon",
    "Lat": 45.76163409999999,
    "Long": 4.8559981
  },
  {
    "Country": "France",
    "Region": "NA",
    "City": "Lyon",
    "Store_name": "Apple Confluence",
    "Img_url": "https://www.apple.com/fr/retail/confluence/images/hero_medium.jpg",
    "Store_address": "Centre Commercial Confluence, 112 Cours Charlemagne, 69002, Lyon",
    "Lat": 45.74092590000001,
    "Long": 4.8176381
  },
  {
    "Country": "France",
    "Region": "NA",
    "City": "Lille",
    "Store_name": "Apple Lille",
    "Img_url": "https://www.apple.com/fr/retail/lille/images/hero_medium.jpg",
    "Store_address": "1 rue Faidherbe, 59800, Lille",
    "Lat": 50.6269718,
    "Long": 3.1104307
  },
  {
    "Country": "France",
    "Region": "NA",
    "City": "Lieusaint",
    "Store_name": "Apple Carré Sénart",
    "Img_url": "https://www.apple.com/fr/retail/carresenart/images/hero_medium.jpg",
    "Store_address": "Centre commercial régional, 3, allée du Préambule, 77127, Lieusaint",
    "Lat": 48.6143101,
    "Long": 2.546669000000001
  },
  {
    "Country": "France",
    "Region": "NA",
    "City": "Le Chesnay",
    "Store_name": "Apple Parly 2",
    "Img_url": "https://www.apple.com/fr/retail/parly2/images/hero_medium.jpg",
    "Store_address": "Centre commercial régional Parly 2, Avenue Charles de Gaulle, 78158, Le Chesnay",
    "Lat": 48.8279546,
    "Long": 2.1163488
  },
  {
    "Country": "France",
    "Region": "NA",
    "City": "Dijon",
    "Store_name": "Apple La Toison d’Or",
    "Img_url": "https://www.apple.com/fr/retail/latoisondor/images/hero_medium.jpg",
    "Store_address": "Centre Commercial de la Toison d’Or, Avenue de Langres, 21078, Dijon",
    "Lat": 47.3577154,
    "Long": 5.0507713
  },
  {
    "Country": "France",
    "Region": "NA",
    "City": "Bordeaux",
    "Store_name": "Apple Sainte-Catherine",
    "Img_url": "https://www.apple.com/fr/retail/sainte-catherine/images/hero_medium.jpg",
    "Store_address": "2-4 rue Sainte-Catherine, 33000, Bordeaux",
    "Lat": 44.8419761,
    "Long": -0.5743252
  },
  {
    "Country": "France",
    "Region": "NA",
    "City": "Aix-en-Provence",
    "Store_name": "Apple Aix-en-Provence",
    "Img_url": "https://www.apple.com/fr/retail/aix-en-provence/images/hero_medium.jpg",
    "Store_address": "2 Place du Général de Gaulle, 13100, Aix-en-Provence",
    "Lat": 43.5256959,
    "Long": 5.4457246
  },
  {
    "Country": "China",
    "Region": "Zhejiang",
    "City": "4006171304",
    "Store_name": "Apple 天一广场",
    "Img_url": "https://www.apple.com/cn/retail/tianyisquare/images/hero_medium.jpg",
    "Store_address": "宁波市海曙区碶闸街 133 号, 天一广场",
    "Lat": 29.869084,
    "Long": 121.553079
  },
  {
    "Country": "China",
    "Region": "Zhejiang",
    "City": "Jianggan District",
    "Store_name": "Apple 西湖",
    "Img_url": "https://www.apple.com/cn/retail/westlake/images/hero_medium.jpg",
    "Store_address": "杭州市上城区平海路 100 号",
    "Lat": 30.254129,
    "Long": 120.163602
  },
  {
    "Country": "China",
    "Region": "Zhejiang",
    "City": "701 Fuchun Road",
    "Store_name": "Apple 杭州万象城",
    "Img_url": "https://www.apple.com/cn/retail/mixchangzhou/images/hero_medium.jpg",
    "Store_address": "杭州市江干区富春路 701 号",
    "Lat": 30.251914,
    "Long": 120.217094
  },
  {
    "Country": "China",
    "Region": "Yunnan",
    "City": "Shuncheng Shopping Center",
    "Store_name": "Apple 昆明",
    "Img_url": "https://www.apple.com/cn/retail/kunming/images/hero_medium.jpg",
    "Store_address": "昆明市五华区东风西路 11 号, 顺城购物中心",
    "Lat": 25.0375058,
    "Long": 102.7131684
  },
  {
    "Country": "China",
    "Region": "Tianjin",
    "City": "4006139745",
    "Store_name": "Apple 天津大悦城",
    "Img_url": "https://www.apple.com/cn/retail/tianjinjoycity/images/hero_medium.jpg",
    "Store_address": "天津市南开区南门外大街 2 号",
    "Lat": 39.134505,
    "Long": 117.179448
  },
  {
    "Country": "China",
    "Region": "Tianjin",
    "City": "Hexi District",
    "Store_name": "Apple 天津恒隆广场",
    "Img_url": "https://www.apple.com/cn/retail/riverside66tianjin/images/hero_medium.jpg",
    "Store_address": "天津市和平区兴安路 166 号",
    "Lat": 39.12822999999999,
    "Long": 117.200343
  },
  {
    "Country": "China",
    "Region": "Tianjin",
    "City": "9 Le Yuan Road",
    "Store_name": "Apple 银河国际购物中心",
    "Img_url": "https://www.apple.com/cn/retail/galaxymall/images/hero_medium.jpg",
    "Store_address": "天津市河西区乐园道 9 号",
    "Lat": 39.090735,
    "Long": 117.216711
  },
  {
    "Country": "China",
    "Region": "Sichuan",
    "City": "4006171214",
    "Store_name": "Apple 成都太古里",
    "Img_url": "https://www.apple.com/cn/retail/taikoolichengdu/images/hero_medium.jpg",
    "Store_address": "成都市锦江区中纱帽街 8 号",
    "Lat": 30.652596,
    "Long": 104.084036
  },
  {
    "Country": "China",
    "Region": "Sichuan",
    "City": "No. 8 Shuangqing RoadChenghua District",
    "Store_name": "Apple 成都万象城",
    "Img_url": "https://www.apple.com/cn/retail/mixcchengdu/images/hero_medium.jpg",
    "Store_address": "成都市成华区双庆路 8 号万象城",
    "Lat": 30.648514,
    "Long": 104.115084
  },
  {
    "Country": "China",
    "Region": "Shanghai",
    "City": "No. 300 East Nanjing Road",
    "Store_name": "Apple 五角场",
    "Img_url": "https://www.apple.com/cn/retail/wujiaochang/images/hero_medium.jpg",
    "Store_address": "上海市杨浦区翔殷路 1099 号, 上海合生汇",
    "Lat": 31.300691,
    "Long": 121.518473
  },
  {
    "Country": "China",
    "Region": "Shanghai",
    "City": "4006171312",
    "Store_name": "Apple 上海环贸 iapm",
    "Img_url": "https://www.apple.com/cn/retail/shanghaiiapm/images/hero_medium.jpg",
    "Store_address": "上海市徐汇区淮海中路 999 号, 环贸 iapm 商场",
    "Lat": 31.214789,
    "Long": 121.457121
  },
  {
    "Country": "China",
    "Region": "Shanghai",
    "City": "Luwan District",
    "Store_name": "Apple 七宝",
    "Img_url": "https://www.apple.com/cn/retail/qibao/images/hero_medium.jpg",
    "Store_address": "上海市闵行区漕宝路 3366 号, 七宝万科广场",
    "Lat": 31.15506599999999,
    "Long": 121.350821
  },
  {
    "Country": "China",
    "Region": "Shanghai",
    "City": "282 Huaihai Zhong Road",
    "Store_name": "Apple 浦东",
    "Img_url": "https://www.apple.com/cn/retail/pudong/images/hero_medium.jpg",
    "Store_address": "上海市浦东新区陆家嘴世纪大道 8 号, 上海国金中心 IFC 商场 LG2－27 号店铺",
    "Lat": 31.237346,
    "Long": 121.501405
  },
  {
    "Country": "China",
    "Region": "Shanghai",
    "City": "4006171335",
    "Store_name": "Apple 南京东路",
    "Img_url": "https://www.apple.com/cn/retail/nanjingeast/images/hero_medium.jpg",
    "Store_address": "上海市黄浦区南京东路 300 号",
    "Lat": 31.238076,
    "Long": 121.484147
  },
  {
    "Country": "China",
    "Region": "Shanghai",
    "City": "Putuo District",
    "Store_name": "Apple 香港广场",
    "Img_url": "https://www.apple.com/cn/retail/hongkongplaza/images/hero_medium.jpg",
    "Store_address": "上海市黄浦区淮海中路 282 号, 香港广场北座",
    "Lat": 31.223395,
    "Long": 121.474521
  },
  {
    "Country": "China",
    "Region": "Shanghai",
    "City": "3300 North Zhongshan Road",
    "Store_name": "Apple 环球港",
    "Img_url": "https://www.apple.com/cn/retail/globalharbor/images/hero_medium.jpg",
    "Store_address": "上海市普陀区中山北路 3300 号",
    "Lat": 31.23282,
    "Long": 121.411949
  },
  {
    "Country": "China",
    "Region": "Shandong",
    "City": "Lixia District",
    "Store_name": "Apple 青岛万象城",
    "Img_url": "https://www.apple.com/cn/retail/mixcqingdao/images/hero_medium.jpg",
    "Store_address": "青岛市市南区山东路 6A 号",
    "Lat": 36.0586644,
    "Long": 120.3654982
  },
  {
    "Country": "China",
    "Region": "Shandong",
    "City": "No. 188 Quancheng Road",
    "Store_name": "Apple 济南恒隆广场",
    "Img_url": "https://www.apple.com/cn/retail/parc66jinan/images/hero_medium.jpg",
    "Store_address": "济南市历下区泉城路 188 号",
    "Lat": 36.664942,
    "Long": 117.023782
  },
  {
    "Country": "China",
    "Region": "Liaoning",
    "City": "19 Jiefang Road",
    "Store_name": "Apple 中街大悦城",
    "Img_url": "https://www.apple.com/cn/retail/zhongjiejoycity/images/hero_medium.jpg",
    "Store_address": "沈阳市大东区小东路 5 号",
    "Lat": 41.802136,
    "Long": 123.468032
  },
  {
    "Country": "China",
    "Region": "Liaoning",
    "City": "4006139741",
    "Store_name": "Apple 沈阳万象城",
    "Img_url": "https://www.apple.com/cn/retail/mixcshenyang/images/hero_medium.jpg",
    "Store_address": "沈阳市和平区青年大街 288 号",
    "Lat": 41.774784,
    "Long": 123.4345721
  },
  {
    "Country": "China",
    "Region": "Liaoning",
    "City": "Xigang District",
    "Store_name": "Apple 百年城",
    "Img_url": "https://www.apple.com/cn/retail/parkland/images/hero_medium.jpg",
    "Store_address": "大连市中山区解放路 19 号",
    "Lat": 38.91666,
    "Long": 121.635803
  },
  {
    "Country": "China",
    "Region": "Liaoning",
    "City": "No.66 Wusi Road",
    "Store_name": "Apple 大连恒隆广场",
    "Img_url": "https://www.apple.com/cn/retail/olympia66dalian/images/hero_medium.jpg",
    "Store_address": "大连市西岗区五四路 66 号",
    "Lat": 38.9067283,
    "Long": 121.6077295
  },
  {
    "Country": "China",
    "Region": "Jiangsu",
    "City": "4006171334",
    "Store_name": "Apple 虹悦城",
    "Img_url": "https://www.apple.com/cn/retail/wondercity/images/hero_medium.jpg",
    "Store_address": "南京市雨花台区应天大街 619 号",
    "Lat": 32.00945,
    "Long": 118.766134
  },
  {
    "Country": "China",
    "Region": "Jiangsu",
    "City": "Xuanwu District",
    "Store_name": "Apple 南京金茂汇",
    "Img_url": "https://www.apple.com/cn/retail/nanjingjinmaoplace/images/hero_medium.jpg",
    "Store_address": "南京市鼓楼区中央路 201 号",
    "Lat": 32.072347,
    "Long": 118.78325
  },
  {
    "Country": "China",
    "Region": "Jiangsu",
    "City": "100 Zhongshan Road",
    "Store_name": "Apple 南京艾尚天地",
    "Img_url": "https://www.apple.com/cn/retail/nanjingist/images/hero_medium.jpg",
    "Store_address": "南京市玄武区中山路 100 号",
    "Lat": 32.046399,
    "Long": 118.78484
  },
  {
    "Country": "China",
    "Region": "Henan",
    "City": "10 Minzhu Road,",
    "Store_name": "Apple 郑州万象城",
    "Img_url": "https://www.apple.com/cn/retail/mixczhengzhou/images/hero_medium.jpg",
    "Store_address": "郑州市二七区民主路 10 号",
    "Lat": 34.754095,
    "Long": 113.663272
  },
  {
    "Country": "China",
    "Region": "Guangxi",
    "City": "136 Minzu Avenue",
    "Store_name": "Apple 南宁万象城",
    "Img_url": "https://www.apple.com/cn/retail/mixcnanning/images/hero_medium.jpg",
    "Store_address": "南宁市青秀区民族大道 136 号",
    "Lat": 22.812,
    "Long": 108.3922
  },
  {
    "Country": "China",
    "Region": "Guangdong",
    "City": "4006139742",
    "Store_name": "Apple 深圳益田假日广场",
    "Img_url": "https://www.apple.com/cn/retail/holidayplazashenzhen/images/hero_medium.jpg",
    "Store_address": "深圳市南山区深南大道 9028 号益田假日广场",
    "Lat": 22.537463,
    "Long": 113.975133
  },
  {
    "Country": "China",
    "Region": "Guangdong",
    "City": "No. 218Tianhe Road",
    "Store_name": "Apple 天环广场",
    "Img_url": "https://www.apple.com/cn/retail/parccentral/images/hero_medium.jpg",
    "Store_address": "广州市天河区天河路 218 号",
    "Lat": 23.1255127,
    "Long": 113.4077046
  },
  {
    "Country": "China",
    "Region": "Fujian",
    "City": "6 Zhuyu RoadJin’an District",
    "Store_name": "Apple 厦门新生活广场",
    "Img_url": "https://www.apple.com/cn/retail/xiamenlifestylecenter/images/hero_medium.jpg",
    "Store_address": "厦门市思明区嘉禾路 399 号, SM 新生活广场",
    "Lat": 24.499313,
    "Long": 118.125519
  },
  {
    "Country": "China",
    "Region": "Fujian",
    "City": "Thaihot Plaza",
    "Store_name": "Apple 泰禾广场",
    "Img_url": "https://www.apple.com/cn/retail/thaihotplaza/images/hero_medium.jpg",
    "Store_address": "福州市晋安区竹屿路 6 号, 东二环泰禾城市广场",
    "Lat": 26.091546,
    "Long": 119.332661
  },
  {
    "Country": "China",
    "Region": "Chongqing",
    "City": "4006171224",
    "Store_name": "Apple 重庆北城天街",
    "Img_url": "https://www.apple.com/cn/retail/paradisewalkchongqing/images/hero_medium.jpg",
    "Store_address": "重庆市江北区北城天街 8 号",
    "Lat": 29.578105,
    "Long": 106.534769
  },
  {
    "Country": "China",
    "Region": "Chongqing",
    "City": "Yuzhong District",
    "Store_name": "Apple 重庆万象城",
    "Img_url": "https://www.apple.com/cn/retail/mixcchongqing/images/hero_medium.jpg",
    "Store_address": "重庆市九龙坡区谢家湾正街 55 号",
    "Lat": 29.515708,
    "Long": 106.522126
  },
  {
    "Country": "China",
    "Region": "Chongqing",
    "City": "108 Zourong Road",
    "Store_name": "Apple 解放碑",
    "Img_url": "https://www.apple.com/cn/retail/jiefangbei/images/hero_medium.jpg",
    "Store_address": "重庆市渝中区邹容路 108 号",
    "Lat": 29.5567594,
    "Long": 106.5780401
  },
  {
    "Country": "China",
    "Region": "Beijing",
    "City": "81 Jianguo RoadChaoyang District",
    "Store_name": "Apple 西单大悦城",
    "Img_url": "https://www.apple.com/cn/retail/xidanjoycity/images/hero_medium.jpg",
    "Store_address": "北京市西城区西单北大街 131 号大悦城",
    "Lat": 39.91084,
    "Long": 116.37353
  },
  {
    "Country": "China",
    "Region": "Beijing",
    "City": "China Central Mall",
    "Store_name": "Apple 王府井",
    "Img_url": "https://www.apple.com/cn/retail/wangfujing/images/hero_medium.jpg",
    "Store_address": "北京市东城区王府井大街 138 号北京 apm",
    "Lat": 39.914252,
    "Long": 116.411692
  },
  {
    "Country": "China",
    "Region": "Beijing",
    "City": "4006171284",
    "Store_name": "Apple 三里屯",
    "Img_url": "https://www.apple.com/cn/retail/sanlitun/images/hero_medium.jpg",
    "Store_address": "北京市朝阳区三里屯路 19 号院, 三里屯太古里 6 号楼",
    "Lat": 39.9350343,
    "Long": 116.4540841
  },
  {
    "Country": "China",
    "Region": "Beijing",
    "City": "Chaoyang District",
    "Store_name": "Apple 华贸购物中心",
    "Img_url": "https://www.apple.com/cn/retail/chinacentralmall/images/hero_medium.jpg",
    "Store_address": "北京市朝阳区建国路 81 号华贸购物中心",
    "Lat": 39.90919,
    "Long": 116.48023
  },
  {
    "Country": "China",
    "Region": "Beijing",
    "City": "101 Chaoyang North Road",
    "Store_name": "Apple 朝阳大悦城",
    "Img_url": "https://www.apple.com/cn/retail/chaoyangjoycity/images/hero_medium.jpg",
    "Store_address": "北京市朝阳区朝阳北路 101 号",
    "Lat": 39.990644,
    "Long": 116.423803
  },
  {
    "Country": "Canada",
    "Region": "Quebec",
    "City": "Laval",
    "Store_name": "Apple Place Ste-Foy",
    "Img_url": "https://www.apple.com/ca/retail/placestefoy/images/hero_medium.jpg",
    "Store_address": "2450 Boulevard Laurier, Quebec City, QC, G1V 2L1",
    "Lat": 46.7735879,
    "Long": -71.2790953
  },
  {
    "Country": "Canada",
    "Region": "Quebec",
    "City": "(450) 618-1400",
    "Store_name": "Apple Fairview Pointe-Claire",
    "Img_url": "https://www.apple.com/ca/retail/fairviewpointeclaire/images/hero_medium.jpg",
    "Store_address": "6801, Transcanada Highway, Pointe-Claire, QC, H9R 5J2",
    "Lat": 45.464042,
    "Long": -73.831361
  },
  {
    "Country": "Canada",
    "Region": "Quebec",
    "City": "BrossardQuebec J4Y 0L3",
    "Store_name": "Apple Sainte-Catherine",
    "Img_url": "https://www.apple.com/ca/retail/saintecatherine/images/hero_medium.jpg",
    "Store_address": "1321 Rue Ste-Catherine Ouest, Montreal, QC, H3G 1P7",
    "Lat": 45.4976062,
    "Long": -73.5755926
  },
  {
    "Country": "Canada",
    "Region": "Quebec",
    "City": "9120 boul. Leduc",
    "Store_name": "Apple Carrefour Laval",
    "Img_url": "https://www.apple.com/ca/retail/carrefourlaval/images/hero_medium.jpg",
    "Store_address": "3035, boulevard Le Carrefour, local C14B, Laval, QC, H7T 1C8",
    "Lat": 45.5702063,
    "Long": -73.7519628
  },
  {
    "Country": "Canada",
    "Region": "Quebec",
    "City": "Brossard",
    "Store_name": "Apple DIX30",
    "Img_url": "https://www.apple.com/ca/retail/dix30/images/hero_medium.jpg",
    "Store_address": "9120 boul. Leduc, Brossard, QC, J4Y 0L3",
    "Lat": 45.4471663,
    "Long": -73.43825749999999
  },
  {
    "Country": "Canada",
    "Region": "Ontario",
    "City": "(905) 513-2860",
    "Store_name": "Apple Conestoga",
    "Img_url": "https://www.apple.com/ca/retail/conestoga/images/hero_medium.jpg",
    "Store_address": "550 King Street North, Waterloo, ON, N2L 5W6",
    "Lat": 43.4979113,
    "Long": -80.52711049999999
  },
  {
    "Country": "Canada",
    "Region": "Ontario",
    "City": "MarkhamOntario L3R 4M9",
    "Store_name": "Apple Yorkdale",
    "Img_url": "https://www.apple.com/ca/retail/yorkdale/images/hero_medium.jpg",
    "Store_address": "3401 Dufferin Street, Toronto, ON, M6A 3A1",
    "Lat": 43.7246843,
    "Long": -79.4541729
  },
  {
    "Country": "Canada",
    "Region": "Ontario",
    "City": "5000 Highway 7 East",
    "Store_name": "Apple Sherway Gardens",
    "Img_url": "https://www.apple.com/ca/retail/sherwaygardens/images/hero_medium.jpg",
    "Store_address": "25 The West Mall, Toronto, ON, M9C 1B8",
    "Lat": 43.6116933,
    "Long": -79.557183
  },
  {
    "Country": "Canada",
    "Region": "Ontario",
    "City": "Markham",
    "Store_name": "Apple Fairview",
    "Img_url": "https://www.apple.com/ca/retail/fairview/images/hero_medium.jpg",
    "Store_address": "1800 Sheppard Avenue East, Toronto, ON, M2J 5A7",
    "Lat": 43.7779901,
    "Long": -79.3440914
  },
  {
    "Country": "Canada",
    "Region": "Ontario",
    "City": "(519) 963-4060",
    "Store_name": "Apple Eaton Centre",
    "Img_url": "https://www.apple.com/ca/retail/eatoncentre/images/hero_medium.jpg",
    "Store_address": "220 Yonge Street, Toronto, ON, M5B 2H1",
    "Lat": 43.6537166,
    "Long": -79.380338
  },
  {
    "Country": "Canada",
    "Region": "Ontario",
    "City": "LondonOntario N6G 3Y9",
    "Store_name": "Apple Rideau",
    "Img_url": "https://www.apple.com/ca/retail/rideau/images/hero_medium.jpg",
    "Store_address": "50 Rideau Street, Ottawa, ON, K1N 9J7",
    "Lat": 45.42509769999999,
    "Long": -75.6912497
  },
  {
    "Country": "Canada",
    "Region": "Ontario",
    "City": "1680 Richmond Street North",
    "Store_name": "Apple Bayshore Shopping Centre",
    "Img_url": "https://www.apple.com/ca/retail/bayshoreshoppingcentre/images/hero_medium.jpg",
    "Store_address": "100 Bayshore Drive, Ottawa, ON, K2B 8C1",
    "Lat": 45.3469493,
    "Long": -75.80655809999999
  },
  {
    "Country": "Canada",
    "Region": "Ontario",
    "City": "London",
    "Store_name": "Apple Upper Canada Mall",
    "Img_url": "https://www.apple.com/ca/retail/uppercanadamall/images/hero_medium.jpg",
    "Store_address": "17600 Yonge Street, Newmarket, ON, L3Y 4Z1",
    "Lat": 44.056104,
    "Long": -79.4855044
  },
  {
    "Country": "Canada",
    "Region": "Ontario",
    "City": "(289) 288-2012",
    "Store_name": "Apple Square One",
    "Img_url": "https://www.apple.com/ca/retail/squareone/images/hero_medium.jpg",
    "Store_address": "100 City Centre Drive, Mississauga, ON, L5B 2C9",
    "Lat": 43.5930784,
    "Long": -79.64249110000002
  },
  {
    "Country": "Canada",
    "Region": "Ontario",
    "City": "BurlingtonOntario L7S 2J8",
    "Store_name": "Apple Markville Shopping Centre",
    "Img_url": "https://www.apple.com/ca/retail/markvilleshoppingcentre/images/hero_medium.jpg",
    "Store_address": "5000 Highway 7 East, Markham, ON, L3R 4M9",
    "Lat": 43.8688209,
    "Long": -79.28844790000001
  },
  {
    "Country": "Canada",
    "Region": "Ontario",
    "City": "900 Maple Avenue",
    "Store_name": "Apple Masonville",
    "Img_url": "https://www.apple.com/ca/retail/masonville/images/hero_medium.jpg",
    "Store_address": "1680 Richmond Street North, London, ON, N6G 3Y9",
    "Lat": 43.025599,
    "Long": -81.27838009999999
  },
  {
    "Country": "Canada",
    "Region": "Ontario",
    "City": "Burlington",
    "Store_name": "Apple Mapleview Centre",
    "Img_url": "https://www.apple.com/ca/retail/mapleviewcentre/images/hero_medium.jpg",
    "Store_address": "900 Maple Avenue, Burlington, ON, L7S 2J8",
    "Lat": 43.3244847,
    "Long": -79.8188186
  },
  {
    "Country": "Canada",
    "Region": "Nova Scotia",
    "City": "Halifax",
    "Store_name": "Apple Halifax Shopping Centre",
    "Img_url": "https://www.apple.com/ca/retail/halifaxshoppingcentre/images/hero_medium.jpg",
    "Store_address": "7001 Mumford Road, Halifax, NS, B3L 4N9",
    "Lat": 44.6491246,
    "Long": -63.6186647
  },
  {
    "Country": "Canada",
    "Region": "Manitoba",
    "City": "Winnipeg",
    "Store_name": "Apple Polo Park",
    "Img_url": "https://www.apple.com/ca/retail/polopark/images/hero_medium.jpg",
    "Store_address": "1485 Portage Avenue, Winnipeg, MB, R3G 0W4",
    "Lat": 49.8839383,
    "Long": -97.1988147
  },
  {
    "Country": "Canada",
    "Region": "British Columbia",
    "City": "2929 Barnet Highway",
    "Store_name": "Apple Pacific Centre",
    "Img_url": "https://www.apple.com/ca/retail/pacificcentre/images/hero_medium.jpg",
    "Store_address": "701 West Georgia Street, Vancouver, BC, V7Y 1G5",
    "Lat": 49.2843731,
    "Long": -123.1164403
  },
  {
    "Country": "Canada",
    "Region": "British Columbia",
    "City": "Coquitlam",
    "Store_name": "Apple Oakridge Centre",
    "Img_url": "https://www.apple.com/ca/retail/oakridgecentre/images/hero_medium.jpg",
    "Store_address": "650 West 41st Avenue, Vancouver, BC, V5Z 2M9",
    "Lat": 49.2319166,
    "Long": -123.1179691
  },
  {
    "Country": "Canada",
    "Region": "British Columbia",
    "City": "(778) 373-4810",
    "Store_name": "Apple Guildford Town Centre",
    "Img_url": "https://www.apple.com/ca/retail/guildfordtowncentre/images/hero_medium.jpg",
    "Store_address": "10355 152 Street, Surrey, BC, V3R 7C1",
    "Lat": 49.1904168,
    "Long": -122.803713
  },
  {
    "Country": "Canada",
    "Region": "British Columbia",
    "City": "BurnabyBritish Columbia V5H 4J2",
    "Store_name": "Apple Richmond Centre",
    "Img_url": "https://www.apple.com/ca/retail/richmondcentre/images/hero_medium.jpg",
    "Store_address": "6551 No. 3 Road, Richmond, BC, V6Y 2B6",
    "Lat": 49.16600529999999,
    "Long": -123.1385914
  },
  {
    "Country": "Canada",
    "Region": "British Columbia",
    "City": "320 4700 Kingsway",
    "Store_name": "Apple Coquitlam Centre",
    "Img_url": "https://www.apple.com/ca/retail/coquitlamcentre/images/hero_medium.jpg",
    "Store_address": "2929 Barnet Highway, Coquitlam, BC, V3B 5R5",
    "Lat": 49.2796092,
    "Long": -122.7986124
  },
  {
    "Country": "Canada",
    "Region": "British Columbia",
    "City": "Burnaby",
    "Store_name": "Apple Metrotown",
    "Img_url": "https://www.apple.com/ca/retail/metrotown/images/hero_medium.jpg",
    "Store_address": "320 4700 Kingsway, Burnaby, BC, V5H 4J2",
    "Lat": 49.2261894,
    "Long": -123.0027339
  },
  {
    "Country": "Canada",
    "Region": "Alberta",
    "City": "(403) 444-3759",
    "Store_name": "Apple West Edmonton",
    "Img_url": "https://www.apple.com/ca/retail/westedmonton/images/hero_medium.jpg",
    "Store_address": "8882-170 Street, Edmonton, AB, T5T 4M2",
    "Lat": 53.5224395,
    "Long": -113.6218728
  },
  {
    "Country": "Canada",
    "Region": "Alberta",
    "City": "CalgaryAlberta T2H 0K8",
    "Store_name": "Apple Southgate Centre",
    "Img_url": "https://www.apple.com/ca/retail/southgatecentre/images/hero_medium.jpg",
    "Store_address": "5015 111 St, Edmonton, AB, T6H 4M6",
    "Lat": 53.4854969,
    "Long": -113.5137132
  },
  {
    "Country": "Canada",
    "Region": "Alberta",
    "City": "6455 Macleod Trail SW",
    "Store_name": "Apple Market Mall",
    "Img_url": "https://www.apple.com/ca/retail/marketmall/images/hero_medium.jpg",
    "Store_address": "3625 Shaganappi Trail NW, Calgary, AB, T3A 0E2",
    "Lat": 51.084709,
    "Long": -114.154918
  },
  {
    "Country": "Canada",
    "Region": "Alberta",
    "City": "Calgary",
    "Store_name": "Apple Chinook Centre",
    "Img_url": "https://www.apple.com/ca/retail/chinookcentre/images/hero_medium.jpg",
    "Store_address": "6455 Macleod Trail SW, Calgary, AB, T2H 0K8",
    "Lat": 50.9951926,
    "Long": -114.0742866
  },
  {
    "Country": "Brazil",
    "Region": "NA",
    "City": "São Paulo",
    "Store_name": "Apple Morumbi",
    "Img_url": "https://www.apple.com/br/retail/morumbi/images/hero_medium.jpg",
    "Store_address": "Av. Roque Petroni Júnior, 1089, Vila Gertrudes, São Paulo, SP, 04707-900",
    "Lat": -23.6228316,
    "Long": -46.6985035
  },
  {
    "Country": "Brazil",
    "Region": "NA",
    "City": "Barra da Tijuca",
    "Store_name": "Apple VillageMall",
    "Img_url": "https://www.apple.com/br/retail/villagemall/images/hero_medium.jpg",
    "Store_address": "Avenida das Américas, 3.900, Barra da Tijuca, Rio de Janeiro, RJ, 22640-102",
    "Lat": -22.9997506,
    "Long": -43.3515184
  },
  {
    "Country": "Austria",
    "Region": "NA",
    "City": "Vienna",
    "Store_name": "Apple Kärntner Straße",
    "Img_url": "https://www.apple.com/at/retail/kaerntnerstrasse/images/hero_medium.jpg",
    "Store_address": "Kärntner Straße 11, 1010, Wien",
    "Lat": 48.2068986,
    "Long": 16.3718368
  },
  {
    "Country": "Australia",
    "Region": "Western Australia",
    "City": "Booragoon WA 6154",
    "Store_name": "Apple Perth City",
    "Img_url": "https://www.apple.com/au/retail/perthcity/images/hero_medium.jpg",
    "Store_address": "790 Hay Street, Perth, WA, 6000",
    "Lat": -31.9528608,
    "Long": 115.8557346
  },
  {
    "Country": "Australia",
    "Region": "Western Australia",
    "City": "Garden City",
    "Store_name": "Apple Garden City Perth",
    "Img_url": "https://www.apple.com/au/retail/gardencityperth/images/hero_medium.jpg",
    "Store_address": "Garden City, 125 Riseley Street, Booragoon, WA, 6154",
    "Lat": -32.0339597,
    "Long": 115.8359301
  },
  {
    "Country": "Australia",
    "Region": "Victoria",
    "City": "Cheltenham VIC 3192",
    "Store_name": "Apple Highpoint",
    "Img_url": "https://www.apple.com/au/retail/highpoint/images/hero_medium.jpg",
    "Store_address": "Highpoint Shopping Centre, 120-200 Rosamond Road, Maribyrnong, VIC, 3032",
    "Lat": -37.7736856,
    "Long": 144.8887857
  },
  {
    "Country": "Australia",
    "Region": "Victoria",
    "City": "Westfield Southland",
    "Store_name": "Apple Fountain Gate",
    "Img_url": "https://www.apple.com/au/retail/fountaingate/images/hero_medium.jpg",
    "Store_address": "Westfield Fountain Gate, 352 Princes Highway, Fountain Gate, VIC, 3805",
    "Lat": -38.018241,
    "Long": 145.3028612
  },
  {
    "Country": "Australia",
    "Region": "Victoria",
    "City": "(03) 9038 7500",
    "Store_name": "Apple Doncaster",
    "Img_url": "https://www.apple.com/au/retail/doncaster/images/hero_medium.jpg",
    "Store_address": "Westfield Doncaster, 619 Doncaster Road, Doncaster, VIC, 3108",
    "Lat": -37.785466,
    "Long": 145.1262183
  },
  {
    "Country": "Australia",
    "Region": "Victoria",
    "City": "Chadstone VIC 3148",
    "Store_name": "Apple Southland",
    "Img_url": "https://www.apple.com/au/retail/southland/images/hero_medium.jpg",
    "Store_address": "Westfield Southland, 1239 Nepean Highway, Cheltenham, VIC, 3192",
    "Lat": -37.9584459,
    "Long": 145.0548077
  },
  {
    "Country": "Australia",
    "Region": "Victoria",
    "City": "Chadstone Shopping Centre",
    "Store_name": "Apple Chadstone",
    "Img_url": "https://www.apple.com/au/retail/chadstone/images/hero_medium.jpg",
    "Store_address": "Chadstone Shopping Centre, 1341 Dandenong Road, Chadstone, VIC, 3148",
    "Lat": -37.88627719999999,
    "Long": 145.0829501
  },
  {
    "Country": "Australia",
    "Region": "South Australia",
    "City": "Rundle Place Centre",
    "Store_name": "Apple Rundle Place",
    "Img_url": "https://www.apple.com/au/retail/rundleplace/images/hero_medium.jpg",
    "Store_address": "Rundle Place Centre, 77-90 Rundle Mall, Adelaide, SA, 5000",
    "Lat": -34.9224638,
    "Long": 138.6027694
  },
  {
    "Country": "Australia",
    "Region": "Queensland",
    "City": "Westfield Carindale",
    "Store_name": "Apple Robina",
    "Img_url": "https://www.apple.com/au/retail/robina/images/hero_medium.jpg",
    "Store_address": "Robina Town Centre, Robina Town Centre Drive, Robina Town Centre, QLD, 4230",
    "Lat": -28.0775721,
    "Long": 153.385215
  },
  {
    "Country": "Australia",
    "Region": "Queensland",
    "City": "(07) 3182 9000",
    "Store_name": "Apple Chermside",
    "Img_url": "https://www.apple.com/au/retail/chermside/images/hero_medium.jpg",
    "Store_address": "Westfield Chermside, Cnr Gympie and Hamilton Roads, Chermside, QLD, 4032",
    "Lat": -27.3846784,
    "Long": 153.0320865
  },
  {
    "Country": "Australia",
    "Region": "Queensland",
    "City": "Brisbane QLD 4000",
    "Store_name": "Apple Carindale",
    "Img_url": "https://www.apple.com/au/retail/carindale/images/hero_medium.jpg",
    "Store_address": "Westfield Carindale, 1151 Creek Road, Carindale, QLD, 4152",
    "Lat": -27.502998,
    "Long": 153.101627
  },
  {
    "Country": "Australia",
    "Region": "Queensland",
    "City": "MacArthur Chambers",
    "Store_name": "Apple Brisbane",
    "Img_url": "https://www.apple.com/au/retail/brisbane/images/hero_medium.jpg",
    "Store_address": "MacArthur Chambers, 233 Queen Street, Brisbane, QLD, 4000",
    "Lat": -27.4684214,
    "Long": 153.0273555
  },
  {
    "Country": "Australia",
    "Region": "New South Wales",
    "City": "(02) 8864 0800",
    "Store_name": "Apple Sydney",
    "Img_url": "https://www.apple.com/au/retail/sydney/images/hero_medium.jpg",
    "Store_address": "367 George Street, Sydney, NSW, 2000",
    "Lat": -33.8689958,
    "Long": 151.2066633
  },
  {
    "Country": "Australia",
    "Region": "New South Wales",
    "City": "Castle Hill NSW 2154",
    "Store_name": "Apple Penrith",
    "Img_url": "https://www.apple.com/au/retail/penrith/images/hero_medium.jpg",
    "Store_address": "Westfield Penrith, 585 High Street, Penrith, NSW, 2750",
    "Lat": -33.751239,
    "Long": 150.692457
  },
  {
    "Country": "Australia",
    "Region": "New South Wales",
    "City": "Castle Towers Shopping Centre",
    "Store_name": "Apple Miranda",
    "Img_url": "https://www.apple.com/au/retail/miranda/images/hero_medium.jpg",
    "Store_address": "Westfield Miranda, 600 Kingsway, Miranda, NSW, 2228",
    "Lat": -34.0350519,
    "Long": 151.1003508
  },
  {
    "Country": "Australia",
    "Region": "New South Wales",
    "City": "(02) 8035 4000",
    "Store_name": "Apple Hornsby",
    "Img_url": "https://www.apple.com/au/retail/hornsby/images/hero_medium.jpg",
    "Store_address": "Westfield Hornsby, 236 Pacific Highway, Hornsby, NSW, 2077",
    "Lat": -33.7049459,
    "Long": 151.100281
  },
  {
    "Country": "Australia",
    "Region": "New South Wales",
    "City": "Broadway NSW 2007",
    "Store_name": "Apple Chatswood Chase",
    "Img_url": "https://www.apple.com/au/retail/chatswoodchase/images/hero_medium.jpg",
    "Store_address": "Chatswood Chase Shopping Centre, Victoria Avenue, Chatswood, NSW, 2067",
    "Lat": -33.7941762,
    "Long": 151.1860217
  },
  {
    "Country": "Australia",
    "Region": "New South Wales",
    "City": "Broadway Shopping Centre",
    "Store_name": "Apple Charlestown",
    "Img_url": "https://www.apple.com/au/retail/charlestown/images/hero_medium.jpg",
    "Store_address": "Charlestown Square, 30 Pearson Street, Charlestown, NSW, 2290",
    "Lat": -32.9641166,
    "Long": 151.693487
  },
  {
    "Country": "Australia",
    "Region": "New South Wales",
    "City": "(02) 9019 2400",
    "Store_name": "Apple Castle Towers",
    "Img_url": "https://www.apple.com/au/retail/castletowers/images/hero_medium.jpg",
    "Store_address": "Castle Towers Shopping Centre, 6-14 Castle Street, Castle Hill, NSW, 2154",
    "Lat": -33.7304839,
    "Long": 151.0053721
  },
  {
    "Country": "Australia",
    "Region": "New South Wales",
    "City": "Bondi Junction NSW 2022",
    "Store_name": "Apple Broadway",
    "Img_url": "https://www.apple.com/au/retail/broadway/images/hero_medium.jpg",
    "Store_address": "Broadway Shopping Centre, 1 Bay Street, Broadway, NSW, 2007",
    "Lat": -33.88363,
    "Long": 151.194967
  },
  {
    "Country": "Australia",
    "Region": "New South Wales",
    "City": "213 Oxford Street",
    "Store_name": "Apple Bondi",
    "Img_url": "https://www.apple.com/au/retail/bondi/images/hero_medium.jpg",
    "Store_address": "213 Oxford Street, Bondi Junction, NSW, 2022",
    "Lat": -33.8922864,
    "Long": 151.2505845
  },
  {
    "Country": "Australia",
    "Region": "Australian Capital Territory",
    "City": "Canberra Centre",
    "Store_name": "Apple Canberra",
    "Img_url": "https://www.apple.com/au/retail/canberra/images/hero_medium.jpg",
    "Store_address": "Canberra Centre, 148 Bunda Street, Canberra, ACT, 2601",
    "Lat": -35.2773679,
    "Long": 149.1328984
  },
  {
    "Country": "United States",
    "Region": "Wisconsin",
    "City": "Wauwatosa",
    "Store_name": "Apple Mayfair",
    "Img_url": "https://www.apple.com/retail/mayfair/images/hero_medium.jpg",
    "Store_address": "2500 N. Mayfair Road, Wauwatosa, WI, 53226",
    "Lat": 43.06383530000001,
    "Long": -88.0445613
  },
  {
    "Country": "United States",
    "Region": "Wisconsin",
    "City": "Madison",
    "Store_name": "Apple Hilldale",
    "Img_url": "https://www.apple.com/retail/hilldale/images/hero_medium.jpg",
    "Store_address": "702 North Midvale Boulevard, Madison, WI, 53705",
    "Lat": 43.07334729999999,
    "Long": -89.4530332
  },
  {
    "Country": "United States",
    "Region": "Wisconsin",
    "City": "Glendale",
    "Store_name": "Apple Bayshore",
    "Img_url": "https://www.apple.com/retail/bayshore/images/hero_medium.jpg",
    "Store_address": "5715 N Centerpark Way, Glendale, WI, 53217",
    "Lat": 43.1216063,
    "Long": -87.9150521
  },
  {
    "Country": "United States",
    "Region": "Washington",
    "City": "Tukwila",
    "Store_name": "Apple Southcenter",
    "Img_url": "https://www.apple.com/retail/southcenter/images/hero_medium.jpg",
    "Store_address": "801 Southcenter Mall, Tukwila, WA, 98188",
    "Lat": 47.45941879999999,
    "Long": -122.2607647
  },
  {
    "Country": "United States",
    "Region": "Washington",
    "City": "Tacoma",
    "Store_name": "Apple Tacoma Mall",
    "Img_url": "https://www.apple.com/retail/tacomamall/images/hero_medium.jpg",
    "Store_address": "4502 S Steele Street, Tacoma, WA, 98409",
    "Lat": 47.21641650000001,
    "Long": -122.4678568
  },
  {
    "Country": "United States",
    "Region": "Washington",
    "City": "Spokane",
    "Store_name": "Apple River Park Square",
    "Img_url": "https://www.apple.com/retail/riverparksquare/images/hero_medium.jpg",
    "Store_address": "710 West Main Avenue, Spokane, WA, 99201",
    "Lat": 47.6592469,
    "Long": -117.4225708
  },
  {
    "Country": "United States",
    "Region": "Washington",
    "City": "Seattle",
    "Store_name": "Apple University Village",
    "Img_url": "https://www.apple.com/retail/universityvillage/images/hero_medium.jpg",
    "Store_address": "2656 NE University Village Street, Seattle, WA, 98105",
    "Lat": 47.6639985,
    "Long": -122.2977975
  },
  {
    "Country": "United States",
    "Region": "Washington",
    "City": "Lynnwood",
    "Store_name": "Apple Alderwood Mall",
    "Img_url": "https://www.apple.com/retail/alderwoodmall/images/hero_medium.jpg",
    "Store_address": "3000 184th Street S.W., Lynnwood, WA, 98037",
    "Lat": 47.8299542,
    "Long": -122.2725709
  },
  {
    "Country": "United States",
    "Region": "Washington",
    "City": "Bellevue",
    "Store_name": "Apple Bellevue Square",
    "Img_url": "https://www.apple.com/retail/bellevuesquare/images/hero_medium.jpg",
    "Store_address": "213 Bellevue Square, Bellevue, WA, 98004",
    "Lat": 47.6163475,
    "Long": -122.2042588
  },
  {
    "Country": "United States",
    "Region": "Virginia",
    "City": "Virginia Beach",
    "Store_name": "Apple Lynnhaven Mall",
    "Img_url": "https://www.apple.com/retail/lynnhavenmall/images/hero_medium.jpg",
    "Store_address": "701 Lynnhaven Parkway, Virginia Beach, VA, 23452",
    "Lat": 36.8166506,
    "Long": -76.071462
  },
  {
    "Country": "United States",
    "Region": "Virginia",
    "City": "Woodbridge",
    "Store_name": "Apple Potomac Town Center",
    "Img_url": "https://www.apple.com/retail/potomactowncenter/images/hero_medium.jpg",
    "Store_address": "15100 Potomac Town Place, Woodbridge, VA, 22191",
    "Lat": 38.6280287,
    "Long": -77.28801399999999
  },
  {
    "Country": "United States",
    "Region": "Virginia",
    "City": "Richmond",
    "Store_name": "Apple Short Pump Town Center",
    "Img_url": "https://www.apple.com/retail/shortpumptowncenter/images/hero_medium.jpg",
    "Store_address": "11800 W. Broad Street, Richmond, VA, 23233",
    "Lat": 37.6562182,
    "Long": -77.6194405
  },
  {
    "Country": "United States",
    "Region": "Virginia",
    "City": "Reston",
    "Store_name": "Apple Reston",
    "Img_url": "https://www.apple.com/retail/reston/images/hero_medium.jpg",
    "Store_address": "11949 Market Street, Reston, VA, 20190",
    "Lat": 38.95858440000001,
    "Long": -77.3583275
  },
  {
    "Country": "United States",
    "Region": "Virginia",
    "City": "Norfolk",
    "Store_name": "Apple MacArthur Center",
    "Img_url": "https://www.apple.com/retail/macarthurcenter/images/hero_medium.jpg",
    "Store_address": "300 Monticello Avenue, Norfolk, VA, 23510",
    "Lat": 36.8491811,
    "Long": -76.2880058
  },
  {
    "Country": "United States",
    "Region": "Virginia",
    "City": "McLean",
    "Store_name": "Apple Tysons Corner",
    "Img_url": "https://www.apple.com/retail/tysonscorner/images/hero_medium.jpg",
    "Store_address": "1961 Chain Bridge Road, McLean, VA, 22102",
    "Lat": 38.9176225,
    "Long": -77.2222369
  },
  {
    "Country": "United States",
    "Region": "Virginia",
    "City": "Fairfax",
    "Store_name": "Apple Fair Oaks",
    "Img_url": "https://www.apple.com/retail/fairoaks/images/hero_medium.jpg",
    "Store_address": "11750 Fair Oaks, Fairfax, VA, 22033",
    "Lat": 38.8623883,
    "Long": -77.3592103
  },
  {
    "Country": "United States",
    "Region": "Virginia",
    "City": "Arlington",
    "Store_name": "Apple Pentagon City",
    "Img_url": "https://www.apple.com/retail/pentagoncity/images/hero_medium.jpg",
    "Store_address": "1100 South Hayes Street, Arlington, VA, 22202",
    "Lat": 38.8639404,
    "Long": -77.0601179
  },
  {
    "Country": "United States",
    "Region": "Virginia",
    "City": "Arlington",
    "Store_name": "Apple Clarendon",
    "Img_url": "https://www.apple.com/retail/clarendon/images/hero_medium.jpg",
    "Store_address": "2700 Clarendon Boulevard, Arlington, VA, 22201",
    "Lat": 38.8876873,
    "Long": -77.0911053
  },
  {
    "Country": "United States",
    "Region": "Utah",
    "City": "Salt Lake City",
    "Store_name": "Apple City Creek Center",
    "Img_url": "https://www.apple.com/retail/citycreekcenter/images/hero_medium.jpg",
    "Store_address": "50 South Main Street, Salt Lake City, UT, 84101",
    "Lat": 40.76835699999999,
    "Long": -111.8917453
  },
  {
    "Country": "United States",
    "Region": "Utah",
    "City": "Murray",
    "Store_name": "Apple Fashion Place",
    "Img_url": "https://www.apple.com/retail/fashionplace/images/hero_medium.jpg",
    "Store_address": "6191 S State Street, Murray, UT, 84107",
    "Lat": 40.6381459,
    "Long": -111.8887915
  },
  {
    "Country": "United States",
    "Region": "Utah",
    "City": "Farmington",
    "Store_name": "Apple Station Park",
    "Img_url": "https://www.apple.com/retail/stationpark/images/hero_medium.jpg",
    "Store_address": "148 N. East Promontory, Farmington, UT, 84025",
    "Lat": 40.9833287,
    "Long": -111.9065687
  },
  {
    "Country": "United States",
    "Region": "Texas",
    "City": "The Woodlands",
    "Store_name": "Apple The Woodlands",
    "Img_url": "https://www.apple.com/retail/thewoodlands/images/hero_medium.jpg",
    "Store_address": "1201 Lake Woodlands Drive, The Woodlands, TX, 77380",
    "Lat": 30.1639591,
    "Long": -95.45537
  },
  {
    "Country": "United States",
    "Region": "Texas",
    "City": "Sugar Land",
    "Store_name": "Apple First Colony Mall",
    "Img_url": "https://www.apple.com/retail/firstcolonymall/images/hero_medium.jpg",
    "Store_address": "16535 Southwest Freeway, Sugar Land, TX, 77479",
    "Lat": 29.5919326,
    "Long": -95.62444649999999
  },
  {
    "Country": "United States",
    "Region": "Texas",
    "City": "Southlake",
    "Store_name": "Apple Southlake Town Square",
    "Img_url": "https://www.apple.com/retail/southlaketownsquare/images/hero_medium.jpg",
    "Store_address": "260 Grand Avenue, Southlake, TX, 76092",
    "Lat": 32.9438372,
    "Long": -97.1305752
  },
  {
    "Country": "United States",
    "Region": "Texas",
    "City": "San Antonio",
    "Store_name": "Apple North Star",
    "Img_url": "https://www.apple.com/retail/northstar/images/hero_medium.jpg",
    "Store_address": "7400 San Pedro Avenue, San Antonio, TX, 78216",
    "Lat": 29.5180072,
    "Long": -98.49750019999999
  },
  {
    "Country": "United States",
    "Region": "Texas",
    "City": "San Antonio",
    "Store_name": "Apple La Cantera",
    "Img_url": "https://www.apple.com/retail/lacantera/images/hero_medium.jpg",
    "Store_address": "15900 La Cantera Parkway, San Antonio, TX, 78256",
    "Lat": 29.5923434,
    "Long": -98.61598149999999
  },
  {
    "Country": "United States",
    "Region": "Texas",
    "City": "Plano",
    "Store_name": "Apple Willow Bend",
    "Img_url": "https://www.apple.com/retail/willowbend/images/hero_medium.jpg",
    "Store_address": "6121 West Park Boulevard, Plano, TX, 75093",
    "Lat": 33.0304543,
    "Long": -96.83173509999999
  },
  {
    "Country": "United States",
    "Region": "Texas",
    "City": "Houston",
    "Store_name": "Apple Willowbrook Mall",
    "Img_url": "https://www.apple.com/retail/willowbrookmall/images/hero_medium.jpg",
    "Store_address": "2000 Willowbrook Drive, Houston, TX, 77070",
    "Lat": 29.9608415,
    "Long": -95.53939729999999
  },
  {
    "Country": "United States",
    "Region": "Texas",
    "City": "Houston",
    "Store_name": "Apple Memorial City",
    "Img_url": "https://www.apple.com/retail/memorialcity/images/hero_medium.jpg",
    "Store_address": "303 Memorial City, Houston, TX, 77024",
    "Lat": 29.780967,
    "Long": -95.53989089999999
  },
  {
    "Country": "United States",
    "Region": "Texas",
    "City": "Houston",
    "Store_name": "Apple Houston Galleria",
    "Img_url": "https://www.apple.com/retail/houstongalleria/images/hero_medium.jpg",
    "Store_address": "5085 Westheimer Road, Houston, TX, 77056",
    "Lat": 29.7382947,
    "Long": -95.4645046
  },
  {
    "Country": "United States",
    "Region": "Texas",
    "City": "Houston",
    "Store_name": "Apple Highland Village",
    "Img_url": "https://www.apple.com/retail/highlandvillage/images/hero_medium.jpg",
    "Store_address": "4012 Westheimer Road, Houston, TX, 77027",
    "Lat": 29.7420592,
    "Long": -95.44573869999999
  },
  {
    "Country": "United States",
    "Region": "Texas",
    "City": "Frisco",
    "Store_name": "Apple Stonebriar",
    "Img_url": "https://www.apple.com/retail/stonebriar/images/hero_medium.jpg",
    "Store_address": "2601 Preston Road, Frisco, TX, 75034",
    "Lat": 33.0991992,
    "Long": -96.81132
  },
  {
    "Country": "United States",
    "Region": "Texas",
    "City": "Friendswood",
    "Store_name": "Apple Baybrook",
    "Img_url": "https://www.apple.com/retail/baybrook/images/hero_medium.jpg",
    "Store_address": "500 Baybrook Mall, Friendswood, TX, 77546",
    "Lat": 29.5421287,
    "Long": -95.1486218
  },
  {
    "Country": "United States",
    "Region": "Texas",
    "City": "Fort Worth",
    "Store_name": "Apple University Park Village",
    "Img_url": "https://www.apple.com/retail/universityparkvillage/images/hero_medium.jpg",
    "Store_address": "1620 S. University Drive, Fort Worth, TX, 76107",
    "Lat": 32.7274289,
    "Long": -97.36186889999999
  },
  {
    "Country": "United States",
    "Region": "Texas",
    "City": "El Paso",
    "Store_name": "Apple Cielo Vista Mall",
    "Img_url": "https://www.apple.com/retail/cielovistamall/images/hero_medium.jpg",
    "Store_address": "8401 Gateway Boulevard West, El Paso, TX, 79925",
    "Lat": 31.7753257,
    "Long": -106.3791262
  },
  {
    "Country": "United States",
    "Region": "Texas",
    "City": "Dallas",
    "Store_name": "Apple NorthPark Center",
    "Img_url": "https://www.apple.com/retail/northparkcenter/images/hero_medium.jpg",
    "Store_address": "8687 North Central Expressway, Dallas, TX, 75225",
    "Lat": 32.8685678,
    "Long": -96.77449519999999
  },
  {
    "Country": "United States",
    "Region": "Texas",
    "City": "Dallas",
    "Store_name": "Apple Knox Street",
    "Img_url": "https://www.apple.com/retail/knoxstreet/images/hero_medium.jpg",
    "Store_address": "3101 Knox Street, Dallas, TX, 75205",
    "Lat": 32.8225377,
    "Long": -96.7879255
  },
  {
    "Country": "United States",
    "Region": "Texas",
    "City": "Austin",
    "Store_name": "Apple Domain NORTHSIDE",
    "Img_url": "https://www.apple.com/retail/domainnorthside/images/hero_medium.jpg",
    "Store_address": "3121 Palm Way, Austin, TX, 78758",
    "Lat": 30.4026278,
    "Long": -97.7216797
  },
  {
    "Country": "United States",
    "Region": "Texas",
    "City": "Austin",
    "Store_name": "Apple Barton Creek",
    "Img_url": "https://www.apple.com/retail/bartoncreek/images/hero_medium.jpg",
    "Store_address": "2901 S. Capital of Texas Highway, Austin, TX, 78746",
    "Lat": 30.2573391,
    "Long": -97.8071884
  },
  {
    "Country": "United States",
    "Region": "Tennessee",
    "City": "Nashville",
    "Store_name": "Apple Green Hills",
    "Img_url": "https://www.apple.com/retail/greenhills/images/hero_medium.jpg",
    "Store_address": "2126 Abbott Martin Road, Nashville, TN, 37215",
    "Lat": 36.1085413,
    "Long": -86.8133648
  },
  {
    "Country": "United States",
    "Region": "Tennessee",
    "City": "Knoxville",
    "Store_name": "Apple West Town Mall",
    "Img_url": "https://www.apple.com/retail/westtownmall/images/hero_medium.jpg",
    "Store_address": "7600 Kingston Pike, Knoxville, TN, 37919",
    "Lat": 35.9229645,
    "Long": -84.04127559999999
  },
  {
    "Country": "United States",
    "Region": "Tennessee",
    "City": "Germantown",
    "Store_name": "Apple Saddle Creek",
    "Img_url": "https://www.apple.com/retail/saddlecreek/images/hero_medium.jpg",
    "Store_address": "2031 West Street, Germantown, TN, 38138",
    "Lat": 35.093464,
    "Long": -89.812816
  },
  {
    "Country": "United States",
    "Region": "Tennessee",
    "City": "Franklin",
    "Store_name": "Apple CoolSprings Galleria",
    "Img_url": "https://www.apple.com/retail/coolspringsgalleria/images/hero_medium.jpg",
    "Store_address": "1800 Galleria Boulevard, Franklin, TN, 37067",
    "Lat": 35.957118,
    "Long": -86.8135382
  },
  {
    "Country": "United States",
    "Region": "South Carolina",
    "City": "Greenville",
    "Store_name": "Apple Haywood Mall",
    "Img_url": "https://www.apple.com/retail/haywoodmall/images/hero_medium.jpg",
    "Store_address": "700 Haywood Road, Greenville, SC, 29607",
    "Lat": 34.8499171,
    "Long": -82.3335876
  },
  {
    "Country": "United States",
    "Region": "South Carolina",
    "City": "Charleston",
    "Store_name": "Apple King Street",
    "Img_url": "https://www.apple.com/retail/kingstreet/images/hero_medium.jpg",
    "Store_address": "301 King Street, Charleston, SC, 29401",
    "Lat": 32.7833395,
    "Long": -79.9349445
  },
  {
    "Country": "United States",
    "Region": "Rhode Island",
    "City": "Providence",
    "Store_name": "Apple Providence Place",
    "Img_url": "https://www.apple.com/retail/providenceplace/images/hero_medium.jpg",
    "Store_address": "20 Providence Place, Providence, RI, 02903",
    "Lat": 41.827286,
    "Long": -71.415986
  },
  {
    "Country": "United States",
    "Region": "Pennsylvania",
    "City": "Willow Grove",
    "Store_name": "Apple Willow Grove Park",
    "Img_url": "https://www.apple.com/retail/willowgrovepark/images/hero_medium.jpg",
    "Store_address": "2500 West Moreland Road, Willow Grove, PA, 19090",
    "Lat": 40.14008020000001,
    "Long": -75.1233422
  },
  {
    "Country": "United States",
    "Region": "Pennsylvania",
    "City": "Whitehall",
    "Store_name": "Apple Lehigh Valley",
    "Img_url": "https://www.apple.com/retail/lehighvalley/images/hero_medium.jpg",
    "Store_address": "250 Lehigh Valley Mall, Whitehall, PA, 18052",
    "Lat": 40.6307581,
    "Long": -75.4799733
  },
  {
    "Country": "United States",
    "Region": "Pennsylvania",
    "City": "Pittsburgh",
    "Store_name": "Apple South Hills Village",
    "Img_url": "https://www.apple.com/retail/southhillsvillage/images/hero_medium.jpg",
    "Store_address": "301 South Hills Village, Pittsburgh, PA, 15241",
    "Lat": 40.3423756,
    "Long": -80.0560528
  },
  {
    "Country": "United States",
    "Region": "Pennsylvania",
    "City": "Pittsburgh",
    "Store_name": "Apple Shadyside",
    "Img_url": "https://www.apple.com/retail/shadyside/images/hero_medium.jpg",
    "Store_address": "5508 Walnut Street, Pittsburgh, PA, 15232",
    "Lat": 40.4510589,
    "Long": -79.93332099999999
  },
  {
    "Country": "United States",
    "Region": "Pennsylvania",
    "City": "Pittsburgh",
    "Store_name": "Apple Ross Park",
    "Img_url": "https://www.apple.com/retail/rosspark/images/hero_medium.jpg",
    "Store_address": "1000 Ross Park Mall Drive, Pittsburgh, PA, 15237",
    "Lat": 40.5445585,
    "Long": -80.0087394
  },
  {
    "Country": "United States",
    "Region": "Pennsylvania",
    "City": "Philadelphia",
    "Store_name": "Apple Walnut Street",
    "Img_url": "https://www.apple.com/retail/walnutstreet/images/hero_medium.jpg",
    "Store_address": "1607 Walnut Street, Philadelphia, PA, 19103",
    "Lat": 39.9499263,
    "Long": -75.1679127
  },
  {
    "Country": "United States",
    "Region": "Pennsylvania",
    "City": "Lancaster",
    "Store_name": "Apple Park City",
    "Img_url": "https://www.apple.com/retail/parkcity/images/hero_medium.jpg",
    "Store_address": "541 Park City Center, Lancaster, PA, 17601",
    "Lat": 40.06658210000001,
    "Long": -76.34262869999999
  },
  {
    "Country": "United States",
    "Region": "Pennsylvania",
    "City": "King of Prussia",
    "Store_name": "Apple King of Prussia",
    "Img_url": "https://www.apple.com/retail/kingofprussia/images/hero_medium.jpg",
    "Store_address": "160 N. Gulph Road, King of Prussia, PA, 19406",
    "Lat": 40.0893932,
    "Long": -75.3860311
  },
  {
    "Country": "United States",
    "Region": "Pennsylvania",
    "City": "Ardmore",
    "Store_name": "Apple Suburban Square",
    "Img_url": "https://www.apple.com/retail/suburbansquare/images/hero_medium.jpg",
    "Store_address": "61 St. James Place, Ardmore, PA, 19003",
    "Lat": 40.0087702,
    "Long": -75.28788829999999
  },
  {
    "Country": "United States",
    "Region": "Oregon",
    "City": "Tigard",
    "Store_name": "Apple Washington Square",
    "Img_url": "https://www.apple.com/retail/washingtonsquare/images/hero_medium.jpg",
    "Store_address": "9585 SW Washington Square Road, Tigard, OR, 97223",
    "Lat": 45.4502155,
    "Long": -122.7806224
  },
  {
    "Country": "United States",
    "Region": "Oregon",
    "City": "Tigard",
    "Store_name": "Apple Bridgeport Village",
    "Img_url": "https://www.apple.com/retail/bridgeportvillage/images/hero_medium.jpg",
    "Store_address": "7293 SW Bridgeport Road, Tigard, OR, 97224",
    "Lat": 45.3967345,
    "Long": -122.7518181
  },
  {
    "Country": "United States",
    "Region": "Oregon",
    "City": "Portland",
    "Store_name": "Apple Pioneer Place",
    "Img_url": "https://www.apple.com/retail/pioneerplace/images/hero_medium.jpg",
    "Store_address": "450 SW Yamhill Street, Portland, OR, 97204",
    "Lat": 45.5177608,
    "Long": -122.6775569
  },
  {
    "Country": "United States",
    "Region": "Oklahoma",
    "City": "Tulsa",
    "Store_name": "Apple Woodland Hills",
    "Img_url": "https://www.apple.com/retail/woodlandhills/images/hero_medium.jpg",
    "Store_address": "7021 S. Memorial Drive, Tulsa, OK, 74133",
    "Lat": 36.06210060000001,
    "Long": -95.8862869
  },
  {
    "Country": "United States",
    "Region": "Oklahoma",
    "City": "Oklahoma City",
    "Store_name": "Apple Penn Square",
    "Img_url": "https://www.apple.com/retail/pennsquare/images/hero_medium.jpg",
    "Store_address": "1901 NW Expressway Street, Oklahoma City, OK, 73118",
    "Lat": 35.5246909,
    "Long": -97.5440106
  },
  {
    "Country": "United States",
    "Region": "Ohio",
    "City": "Woodmere",
    "Store_name": "Apple Eton",
    "Img_url": "https://www.apple.com/retail/eton/images/hero_medium.jpg",
    "Store_address": "28849 Chagrin Boulevard, Woodmere, OH, 44122",
    "Lat": 41.4634672,
    "Long": -81.47693079999999
  },
  {
    "Country": "United States",
    "Region": "Ohio",
    "City": "Westlake",
    "Store_name": "Apple Crocker Park",
    "Img_url": "https://www.apple.com/retail/crockerpark/images/hero_medium.jpg",
    "Store_address": "267 Crocker Park Boulevard, Westlake, OH, 44145",
    "Lat": 41.459021,
    "Long": -81.953204
  },
  {
    "Country": "United States",
    "Region": "Ohio",
    "City": "Toledo",
    "Store_name": "Apple Franklin Park Mall",
    "Img_url": "https://www.apple.com/retail/franklinparkmall/images/hero_medium.jpg",
    "Store_address": "5001 Monroe Street, Toledo, OH, 43623",
    "Lat": 41.69479030000001,
    "Long": -83.6405724
  },
  {
    "Country": "United States",
    "Region": "Ohio",
    "City": "Columbus",
    "Store_name": "Apple Polaris Fashion Place",
    "Img_url": "https://www.apple.com/retail/polarisfashionplace/images/hero_medium.jpg",
    "Store_address": "1500 Polaris Parkway, Columbus, OH, 43240",
    "Lat": 40.1452394,
    "Long": -82.9814409
  },
  {
    "Country": "United States",
    "Region": "Ohio",
    "City": "Columbus",
    "Store_name": "Apple Easton Town Center",
    "Img_url": "https://www.apple.com/retail/eastontowncenter/images/hero_medium.jpg",
    "Store_address": "4210 The Strand, Columbus, OH, 43219",
    "Lat": 40.05406869999999,
    "Long": -82.91485519999999
  },
  {
    "Country": "United States",
    "Region": "Ohio",
    "City": "Cincinnati",
    "Store_name": "Apple Kenwood Towne Centre",
    "Img_url": "https://www.apple.com/retail/kenwoodtownecentre/images/hero_medium.jpg",
    "Store_address": "7875 Montgomery Road, Cincinnati, OH, 45236",
    "Lat": 39.2018097,
    "Long": -84.37779549999999
  },
  {
    "Country": "United States",
    "Region": "Ohio",
    "City": "Beavercreek",
    "Store_name": "Apple The Greene",
    "Img_url": "https://www.apple.com/retail/thegreene/images/hero_medium.jpg",
    "Store_address": "4422 Cedar Park Drive, Beavercreek, OH, 45440",
    "Lat": 39.69446689999999,
    "Long": -84.10212059999999
  },
  {
    "Country": "United States",
    "Region": "Ohio",
    "City": "Akron",
    "Store_name": "Apple Summit Mall",
    "Img_url": "https://www.apple.com/retail/summitmall/images/hero_medium.jpg",
    "Store_address": "3265 West Market Street, Akron, OH, 44333",
    "Lat": 41.1341338,
    "Long": -81.6176897
  },
  {
    "Country": "United States",
    "Region": "North Carolina",
    "City": "Raleigh",
    "Store_name": "Apple Crabtree Valley Mall",
    "Img_url": "https://www.apple.com/retail/crabtreevalleymall/images/hero_medium.jpg",
    "Store_address": "4325 Glenwood Avenue, Raleigh, NC, 27612",
    "Lat": 35.8400058,
    "Long": -78.6791806
  },
  {
    "Country": "United States",
    "Region": "North Carolina",
    "City": "Greensboro",
    "Store_name": "Apple Friendly Center",
    "Img_url": "https://www.apple.com/retail/friendlycenter/images/hero_medium.jpg",
    "Store_address": "3320 West Friendly Avenue, Greensboro, NC, 27410",
    "Lat": 36.0860898,
    "Long": -79.8360379
  },
  {
    "Country": "United States",
    "Region": "North Carolina",
    "City": "Durham",
    "Store_name": "Apple Southpoint",
    "Img_url": "https://www.apple.com/retail/southpoint/images/hero_medium.jpg",
    "Store_address": "8030 Renaissance Parkway, Durham, NC, 27713",
    "Lat": 35.9044369,
    "Long": -78.94299509999999
  },
  {
    "Country": "United States",
    "Region": "North Carolina",
    "City": "Charlotte",
    "Store_name": "Apple SouthPark",
    "Img_url": "https://www.apple.com/retail/southpark/images/hero_medium.jpg",
    "Store_address": "4400 Sharon Road, Charlotte, NC, 28211",
    "Lat": 35.1522311,
    "Long": -80.8318968
  },
  {
    "Country": "United States",
    "Region": "North Carolina",
    "City": "Charlotte",
    "Store_name": "Apple Northlake Mall",
    "Img_url": "https://www.apple.com/retail/northlakemall/images/hero_medium.jpg",
    "Store_address": "6801 Northlake Mall Drive, Charlotte, NC, 28216",
    "Lat": 35.3525528,
    "Long": -80.8511888
  },
  {
    "Country": "United States",
    "Region": "New York",
    "City": "Yonkers",
    "Store_name": "Apple Ridge Hill",
    "Img_url": "https://www.apple.com/retail/ridgehill/images/hero_medium.jpg",
    "Store_address": "143 Market Street, Yonkers, NY, 10710",
    "Lat": 40.963703,
    "Long": -73.85656399999999
  },
  {
    "Country": "United States",
    "Region": "New York",
    "City": "White Plains",
    "Store_name": "Apple The Westchester",
    "Img_url": "https://www.apple.com/retail/thewestchester/images/hero_medium.jpg",
    "Store_address": "125 Westchester Avenue, White Plains, NY, 10601",
    "Lat": 41.0315151,
    "Long": -73.7585505
  },
  {
    "Country": "United States",
    "Region": "New York",
    "City": "Victor",
    "Store_name": "Apple Eastview",
    "Img_url": "https://www.apple.com/retail/eastview/images/hero_medium.jpg",
    "Store_address": "7979 Pittsford-Victor Road, Victor, NY, 14564",
    "Lat": 43.0299449,
    "Long": -77.44371129999999
  },
  {
    "Country": "United States",
    "Region": "New York",
    "City": "Syracuse",
    "Store_name": "Apple Syracuse",
    "Img_url": "https://www.apple.com/retail/syracuse/images/hero_medium.jpg",
    "Store_address": "1 Destiny USA Drive, Syracuse, NY, 13204",
    "Lat": 43.0692244,
    "Long": -76.17375489999999
  },
  {
    "Country": "United States",
    "Region": "New York",
    "City": "Staten Island",
    "Store_name": "Apple Staten Island",
    "Img_url": "https://www.apple.com/retail/statenisland/images/hero_medium.jpg",
    "Store_address": "2655 Richmond Avenue, Staten Island, NY, 10314",
    "Lat": 40.582418,
    "Long": -74.1659155
  },
  {
    "Country": "United States",
    "Region": "New York",
    "City": "New York",
    "Store_name": "Apple World Trade Center",
    "Img_url": "https://www.apple.com/retail/worldtradecenter/images/hero_medium.jpg",
    "Store_address": "185 Greenwich Street, New York, NY, 10007",
    "Lat": 40.7115712,
    "Long": -74.0114251
  },
  {
    "Country": "United States",
    "Region": "New York",
    "City": "New York",
    "Store_name": "Apple West 14th Street",
    "Img_url": "https://www.apple.com/retail/west14thstreet/images/hero_medium.jpg",
    "Store_address": "401 W 14th Street, New York, NY, 10014",
    "Lat": 40.7413821,
    "Long": -74.0054991
  },
  {
    "Country": "United States",
    "Region": "New York",
    "City": "New York",
    "Store_name": "Apple Upper West Side",
    "Img_url": "https://www.apple.com/retail/upperwestside/images/hero_medium.jpg",
    "Store_address": "1981 Broadway, New York, NY, 10023",
    "Lat": 40.7750785,
    "Long": -73.9826815
  },
  {
    "Country": "United States",
    "Region": "New York",
    "City": "New York",
    "Store_name": "Apple Upper East Side",
    "Img_url": "https://www.apple.com/retail/uppereastside/images/hero_medium.jpg",
    "Store_address": "940 Madison Avenue, New York, NY, 10021",
    "Lat": 40.7733347,
    "Long": -73.96456789999999
  },
  {
    "Country": "United States",
    "Region": "New York",
    "City": "New York",
    "Store_name": "Apple SoHo",
    "Img_url": "https://www.apple.com/retail/soho/images/hero_medium.jpg",
    "Store_address": "103 Prince Street, New York, NY, 10012",
    "Lat": 40.7251231,
    "Long": -73.9989341
  },
  {
    "Country": "United States",
    "Region": "New York",
    "City": "New York",
    "Store_name": "Apple Grand Central",
    "Img_url": "https://www.apple.com/retail/grandcentral/images/hero_medium.jpg",
    "Store_address": "45 Grand Central Terminal, New York, NY, 10017",
    "Lat": 40.7529239,
    "Long": -73.976881
  },
  {
    "Country": "United States",
    "Region": "New York",
    "City": "New York",
    "Store_name": "Apple Fifth Avenue",
    "Img_url": "https://www.apple.com/retail/fifthavenue/images/hero_medium.jpg",
    "Store_address": "767 Fifth Avenue, New York, NY, 10153",
    "Lat": 40.7635861,
    "Long": -73.9723967
  },
  {
    "Country": "United States",
    "Region": "New York",
    "City": "Nanuet",
    "Store_name": "Apple Nanuet",
    "Img_url": "https://www.apple.com/retail/nanuet/images/hero_medium.jpg",
    "Store_address": "8115 Fashion Drive, Nanuet, NY, 10954",
    "Lat": 41.0957745,
    "Long": -74.0161567
  },
  {
    "Country": "United States",
    "Region": "New York",
    "City": "Manhasset",
    "Store_name": "Apple Manhasset",
    "Img_url": "https://www.apple.com/retail/manhasset/images/hero_medium.jpg",
    "Store_address": "1900 Northern Boulevard, Manhasset, NY, 11030",
    "Lat": 40.7949487,
    "Long": -73.67712019999999
  },
  {
    "Country": "United States",
    "Region": "New York",
    "City": "Lake Grove",
    "Store_name": "Apple Smith Haven",
    "Img_url": "https://www.apple.com/retail/smithhaven/images/hero_medium.jpg",
    "Store_address": "518 Smith Haven Mall, Lake Grove, NY, 11755",
    "Lat": 40.8646548,
    "Long": -73.1333539
  },
  {
    "Country": "United States",
    "Region": "New York",
    "City": "Huntington Station",
    "Store_name": "Apple Walt Whitman",
    "Img_url": "https://www.apple.com/retail/waltwhitman/images/hero_medium.jpg",
    "Store_address": "160 Walt Whitman Road, Huntington Station, NY, 11746",
    "Lat": 40.8229235,
    "Long": -73.4106894
  },
  {
    "Country": "United States",
    "Region": "New York",
    "City": "Garden City",
    "Store_name": "Apple Roosevelt Field",
    "Img_url": "https://www.apple.com/retail/rooseveltfield/images/hero_medium.jpg",
    "Store_address": "630 Old Country Road, Garden City, NY, 11530",
    "Lat": 40.7399709,
    "Long": -73.61357579999999
  },
  {
    "Country": "United States",
    "Region": "New York",
    "City": "Elmhurst",
    "Store_name": "Apple Queens Center",
    "Img_url": "https://www.apple.com/retail/queenscenter/images/hero_medium.jpg",
    "Store_address": "90-15 Queens Boulevard, Elmhurst, NY, 11373",
    "Lat": 40.73450039999999,
    "Long": -73.87094239999999
  },
  {
    "Country": "United States",
    "Region": "New York",
    "City": "Buffalo",
    "Store_name": "Apple Walden Galleria",
    "Img_url": "https://www.apple.com/retail/waldengalleria/images/hero_medium.jpg",
    "Store_address": "G116 Walden Galleria, Buffalo, NY, 14225",
    "Lat": 42.914913,
    "Long": -78.762121
  },
  {
    "Country": "United States",
    "Region": "New York",
    "City": "Brooklyn",
    "Store_name": "Apple Williamsburg",
    "Img_url": "https://www.apple.com/retail/williamsburg/images/hero_medium.jpg",
    "Store_address": "247 Bedford Avenue, Brooklyn, NY, 11211",
    "Lat": 40.7155938,
    "Long": -73.9599319
  },
  {
    "Country": "United States",
    "Region": "New York",
    "City": "Brooklyn",
    "Store_name": "Apple Downtown Brooklyn",
    "Img_url": "https://www.apple.com/retail/downtownbrooklyn/images/hero_medium.jpg",
    "Store_address": "123 Flatbush Avenue, Brooklyn, NY, 11217",
    "Lat": 40.6848614,
    "Long": -73.9779406
  },
  {
    "Country": "United States",
    "Region": "New York",
    "City": "Albany",
    "Store_name": "Apple Crossgates",
    "Img_url": "https://www.apple.com/retail/crossgates/images/hero_medium.jpg",
    "Store_address": "1 Crossgates Mall Road, Albany, NY, 12203",
    "Lat": 42.689901,
    "Long": -73.84988729999999
  },
  {
    "Country": "United States",
    "Region": "New Mexico",
    "City": "Albuquerque",
    "Store_name": "Apple ABQ Uptown",
    "Img_url": "https://www.apple.com/retail/abquptown/images/hero_medium.jpg",
    "Store_address": "2240 Q Street NE, Albuquerque, NM, 87110",
    "Lat": 35.1024312,
    "Long": -106.5669329
  },
  {
    "Country": "United States",
    "Region": "New Jersey",
    "City": "Woodcliff Lake",
    "Store_name": "Apple Tice's Corner",
    "Img_url": "https://www.apple.com/retail/ticescorner/images/hero_medium.jpg",
    "Store_address": "441 Chestnut Ridge Road, Woodcliff Lake, NJ, 07677",
    "Lat": 41.0419119,
    "Long": -74.07500209999999
  },
  {
    "Country": "United States",
    "Region": "New Jersey",
    "City": "Wayne",
    "Store_name": "Apple Willowbrook",
    "Img_url": "https://www.apple.com/retail/willowbrook/images/hero_medium.jpg",
    "Store_address": "1400 Willowbrook Mall, Wayne, NJ, 07470",
    "Lat": 40.8888697,
    "Long": -74.2595486
  },
  {
    "Country": "United States",
    "Region": "New Jersey",
    "City": "Short Hills",
    "Store_name": "Apple Short Hills",
    "Img_url": "https://www.apple.com/retail/shorthills/images/hero_medium.jpg",
    "Store_address": "1200 Morris Turnpike, Short Hills, NJ, 07078",
    "Lat": 40.7408743,
    "Long": -74.3642457
  },
  {
    "Country": "United States",
    "Region": "New Jersey",
    "City": "Rockaway",
    "Store_name": "Apple Rockaway",
    "Img_url": "https://www.apple.com/retail/rockaway/images/hero_medium.jpg",
    "Store_address": "301 Mt. Hope Avenue, Rockaway, NJ, 07866",
    "Lat": 40.9069941,
    "Long": -74.5547725
  },
  {
    "Country": "United States",
    "Region": "New Jersey",
    "City": "Paramus",
    "Store_name": "Apple Garden State Plaza",
    "Img_url": "https://www.apple.com/retail/gardenstateplaza/images/hero_medium.jpg",
    "Store_address": "1 Garden State Plaza, Paramus, NJ, 07652",
    "Lat": 40.91817289999999,
    "Long": -74.076331
  },
  {
    "Country": "United States",
    "Region": "New Jersey",
    "City": "Marlton",
    "Store_name": "Apple Sagemore",
    "Img_url": "https://www.apple.com/retail/sagemore/images/hero_medium.jpg",
    "Store_address": "500 Route 73 South, Marlton, NJ, 08053",
    "Lat": 39.8784764,
    "Long": -74.9195938
  },
  {
    "Country": "United States",
    "Region": "New Jersey",
    "City": "Lawrence Township",
    "Store_name": "Apple Quaker Bridge",
    "Img_url": "https://www.apple.com/retail/quakerbridge/images/hero_medium.jpg",
    "Store_address": "150 Quaker Bridge Mall, Lawrence Township, NJ, 08648",
    "Lat": 40.2910416,
    "Long": -74.6826687
  },
  {
    "Country": "United States",
    "Region": "New Jersey",
    "City": "Freehold",
    "Store_name": "Apple Freehold Raceway Mall",
    "Img_url": "https://www.apple.com/retail/freeholdracewaymall/images/hero_medium.jpg",
    "Store_address": "3710 Route 9 South, Freehold, NJ, 07728",
    "Lat": 40.2533021,
    "Long": -74.2995282
  },
  {
    "Country": "United States",
    "Region": "New Jersey",
    "City": "Edison",
    "Store_name": "Apple Menlo Park",
    "Img_url": "https://www.apple.com/retail/menlopark/images/hero_medium.jpg",
    "Store_address": "55 Parsonage Road, Edison, NJ, 08837",
    "Lat": 40.547898,
    "Long": -74.3362215
  },
  {
    "Country": "United States",
    "Region": "New Jersey",
    "City": "Cherry Hill",
    "Store_name": "Apple Cherry Hill",
    "Img_url": "https://www.apple.com/retail/cherryhill/images/hero_medium.jpg",
    "Store_address": "2000 Route 38, Cherry Hill, NJ, 08002",
    "Lat": 39.94086,
    "Long": -75.02570159999999
  },
  {
    "Country": "United States",
    "Region": "New Jersey",
    "City": "Bridgewater",
    "Store_name": "Apple Bridgewater",
    "Img_url": "https://www.apple.com/retail/bridgewater/images/hero_medium.jpg",
    "Store_address": "400 Commons Way, Bridgewater, NJ, 08807",
    "Lat": 40.5863872,
    "Long": -74.6199134
  },
  {
    "Country": "United States",
    "Region": "New Jersey",
    "City": "Atlantic City",
    "Store_name": "Apple The Pier",
    "Img_url": "https://www.apple.com/retail/thepier/images/hero_medium.jpg",
    "Store_address": "The Pier at Caesars, Atlantic City, NJ, 08401",
    "Lat": 39.3546625,
    "Long": -74.4349275
  },
  {
    "Country": "United States",
    "Region": "New Hampshire",
    "City": "Salem",
    "Store_name": "Apple Rockingham Park",
    "Img_url": "https://www.apple.com/retail/rockinghampark/images/hero_medium.jpg",
    "Store_address": "99 Rockingham Park Boulevard, Salem, NH, 03079",
    "Lat": 42.7674161,
    "Long": -71.23145439999999
  },
  {
    "Country": "United States",
    "Region": "New Hampshire",
    "City": "Nashua",
    "Store_name": "Apple Pheasant Lane",
    "Img_url": "https://www.apple.com/retail/pheasantlane/images/hero_medium.jpg",
    "Store_address": "310 Daniel Webster Highway, Nashua, NH, 03060",
    "Lat": 42.70101700000001,
    "Long": -71.4369865
  },
  {
    "Country": "United States",
    "Region": "New Hampshire",
    "City": "Manchester",
    "Store_name": "Apple The Mall of New Hampshire",
    "Img_url": "https://www.apple.com/retail/themallofnewhampshire/images/hero_medium.jpg",
    "Store_address": "1500 S Willow Street, Manchester, NH, 03103",
    "Lat": 42.9554768,
    "Long": -71.4325338
  },
  {
    "Country": "United States",
    "Region": "Nevada",
    "City": "Reno",
    "Store_name": "Apple Summit Sierra",
    "Img_url": "https://www.apple.com/retail/summitsierra/images/hero_medium.jpg",
    "Store_address": "13945 South Virginia Street, Reno, NV, 89511",
    "Lat": 39.401693,
    "Long": -119.7519223
  },
  {
    "Country": "United States",
    "Region": "Nevada",
    "City": "Las Vegas",
    "Store_name": "Apple Town Square",
    "Img_url": "https://www.apple.com/retail/townsquare/images/hero_medium.jpg",
    "Store_address": "6671 Las Vegas Boulevard South, Las Vegas, NV, 89119",
    "Lat": 36.0694883,
    "Long": -115.171986
  },
  {
    "Country": "United States",
    "Region": "Nevada",
    "City": "Las Vegas",
    "Store_name": "Apple The Forum Shops",
    "Img_url": "https://www.apple.com/retail/theforumshops/images/hero_medium.jpg",
    "Store_address": "3500 Las Vegas Blvd South, Caesars Palace, Las Vegas, NV, 89109",
    "Lat": 36.119001,
    "Long": -115.1761257
  },
  {
    "Country": "United States",
    "Region": "Nevada",
    "City": "Las Vegas",
    "Store_name": "Apple Summerlin",
    "Img_url": "https://www.apple.com/retail/summerlin/images/hero_medium.jpg",
    "Store_address": "1985 Festival Plaza Drive, Las Vegas, NV, 89135",
    "Lat": 36.1502694,
    "Long": -115.3338102
  },
  {
    "Country": "United States",
    "Region": "Nevada",
    "City": "Las Vegas",
    "Store_name": "Apple Fashion Show",
    "Img_url": "https://www.apple.com/retail/fashionshow/images/hero_medium.jpg",
    "Store_address": "3200 Las Vegas Boulevard, Las Vegas, NV, 89109",
    "Lat": 36.1275236,
    "Long": -115.1715003
  },
  {
    "Country": "United States",
    "Region": "Nebraska",
    "City": "Omaha",
    "Store_name": "Apple Village Pointe",
    "Img_url": "https://www.apple.com/retail/villagepointe/images/hero_medium.jpg",
    "Store_address": "17170 Davenport Street, Omaha, NE, 68118",
    "Lat": 41.2611538,
    "Long": -96.18333539999999
  },
  {
    "Country": "United States",
    "Region": "Missouri",
    "City": "St. Louis",
    "Store_name": "Apple West County",
    "Img_url": "https://www.apple.com/retail/westcounty/images/hero_medium.jpg",
    "Store_address": "131 West County Center, St. Louis, MO, 63131",
    "Lat": 38.6009346,
    "Long": -90.4476968
  },
  {
    "Country": "United States",
    "Region": "Missouri",
    "City": "St. Louis",
    "Store_name": "Apple Saint Louis Galleria",
    "Img_url": "https://www.apple.com/retail/saintlouisgalleria/images/hero_medium.jpg",
    "Store_address": "2440 Saint Louis Galleria, St. Louis, MO, 63117",
    "Lat": 38.6372982,
    "Long": -90.34837639999999
  },
  {
    "Country": "United States",
    "Region": "Missouri",
    "City": "Kansas City",
    "Store_name": "Apple Country Club Plaza",
    "Img_url": "https://www.apple.com/retail/countryclubplaza/images/hero_medium.jpg",
    "Store_address": "227 Nichols Road, Kansas City, MO, 64112",
    "Lat": 39.0413017,
    "Long": -94.5899346
  },
  {
    "Country": "United States",
    "Region": "Mississippi",
    "City": "Ridgeland",
    "Store_name": "Apple Renaissance at Colony Park",
    "Img_url": "https://www.apple.com/retail/renaissanceatcolonypark/images/hero_medium.jpg",
    "Store_address": "1000 Highland Colony Parkway, Ridgeland, MS, 39157",
    "Lat": 32.4364718,
    "Long": -90.1472058
  },
  {
    "Country": "United States",
    "Region": "Minnesota",
    "City": "Roseville",
    "Store_name": "Apple Rosedale Center",
    "Img_url": "https://www.apple.com/retail/rosedalecenter/images/hero_medium.jpg",
    "Store_address": "1595 Highway 36 W, Space 500, Roseville, MN, 55113",
    "Lat": 45.0130419,
    "Long": -93.1719281
  },
  {
    "Country": "United States",
    "Region": "Minnesota",
    "City": "Minnetonka",
    "Store_name": "Apple Ridgedale",
    "Img_url": "https://www.apple.com/retail/ridgedale/images/hero_medium.jpg",
    "Store_address": "12531 Wayzata Boulevard, Minnetonka, MN, 55305",
    "Lat": 44.9690334,
    "Long": -93.4382175
  },
  {
    "Country": "United States",
    "Region": "Minnesota",
    "City": "Minneapolis",
    "Store_name": "Apple Uptown",
    "Img_url": "https://www.apple.com/retail/uptown/images/hero_medium.jpg",
    "Store_address": "3018 Hennepin Avenue, Minneapolis, MN, 55408",
    "Lat": 44.9477061,
    "Long": -93.29863030000001
  },
  {
    "Country": "United States",
    "Region": "Minnesota",
    "City": "Edina",
    "Store_name": "Apple Southdale",
    "Img_url": "https://www.apple.com/retail/southdale/images/hero_medium.jpg",
    "Store_address": "1560 Southdale Center, Edina, MN, 55435",
    "Lat": 44.880335,
    "Long": -93.32446499999999
  },
  {
    "Country": "United States",
    "Region": "Minnesota",
    "City": "Bloomington",
    "Store_name": "Apple Mall of America",
    "Img_url": "https://www.apple.com/retail/mallofamerica/images/hero_medium.jpg",
    "Store_address": "132 South Avenue, Bloomington, MN, 55425",
    "Lat": 44.8532695,
    "Long": -93.2417762
  },
  {
    "Country": "United States",
    "Region": "Michigan",
    "City": "Troy",
    "Store_name": "Apple Somerset",
    "Img_url": "https://www.apple.com/retail/somerset/images/hero_medium.jpg",
    "Store_address": "2800 W Big Beaver Road, Troy, MI, 48084",
    "Lat": 42.5627151,
    "Long": -83.18404149999999
  },
  {
    "Country": "United States",
    "Region": "Michigan",
    "City": "Novi",
    "Store_name": "Apple Twelve Oaks",
    "Img_url": "https://www.apple.com/retail/twelveoaks/images/hero_medium.jpg",
    "Store_address": "27500 Novi Road, Novi, MI, 48377",
    "Lat": 42.4899334,
    "Long": -83.4759009
  },
  {
    "Country": "United States",
    "Region": "Michigan",
    "City": "Lansing",
    "Store_name": "Apple Eastwood Towne Center",
    "Img_url": "https://www.apple.com/retail/eastwoodtownecenter/images/hero_medium.jpg",
    "Store_address": "3025 Preyde Boulevard, Lansing, MI, 48912",
    "Lat": 42.7638279,
    "Long": -84.5133862
  },
  {
    "Country": "United States",
    "Region": "Michigan",
    "City": "Grand Rapids",
    "Store_name": "Apple Woodland",
    "Img_url": "https://www.apple.com/retail/woodland/images/hero_medium.jpg",
    "Store_address": "3195 28th Street, Grand Rapids, MI, 49512",
    "Lat": 42.9162654,
    "Long": -85.5882673
  },
  {
    "Country": "United States",
    "Region": "Michigan",
    "City": "Clinton Township",
    "Store_name": "Apple Partridge Creek",
    "Img_url": "https://www.apple.com/retail/partridgecreek/images/hero_medium.jpg",
    "Store_address": "17360 Hall Road, Clinton Township, MI, 48038",
    "Lat": 42.6252912,
    "Long": -82.9466661
  },
  {
    "Country": "United States",
    "Region": "Michigan",
    "City": "Ann Arbor",
    "Store_name": "Apple Briarwood",
    "Img_url": "https://www.apple.com/retail/briarwood/images/hero_medium.jpg",
    "Store_address": "100 Briarwood Circle, Ann Arbor, MI, 48108",
    "Lat": 42.2403679,
    "Long": -83.74757489999999
  },
  {
    "Country": "United States",
    "Region": "Massachusetts",
    "City": "Natick",
    "Store_name": "Apple Natick Collection",
    "Img_url": "https://www.apple.com/retail/natickcollection/images/hero_medium.jpg",
    "Store_address": "1245 Worcester Street, Natick, MA, 01760",
    "Lat": 42.301113,
    "Long": -71.3819171
  },
  {
    "Country": "United States",
    "Region": "Massachusetts",
    "City": "Marlborough",
    "Store_name": "Apple Solomon Pond Mall",
    "Img_url": "https://www.apple.com/retail/solomonpondmall/images/hero_medium.jpg",
    "Store_address": "601 Donald Lynch Boulevard, Marlborough, MA, 01752",
    "Lat": 42.3550944,
    "Long": -71.61320719999999
  },
  {
    "Country": "United States",
    "Region": "Massachusetts",
    "City": "Lynnfield",
    "Store_name": "Apple MarketStreet",
    "Img_url": "https://www.apple.com/retail/marketstreet/images/hero_medium.jpg",
    "Store_address": "1220 Market Street, Lynnfield, MA, 01940",
    "Lat": 42.5156687,
    "Long": -71.0341966
  },
  {
    "Country": "United States",
    "Region": "Massachusetts",
    "City": "Holyoke",
    "Store_name": "Apple Holyoke",
    "Img_url": "https://www.apple.com/retail/holyoke/images/hero_medium.jpg",
    "Store_address": "50 Holyoke Street, Holyoke, MA, 01040",
    "Lat": 42.1676302,
    "Long": -72.64135689999999
  },
  {
    "Country": "United States",
    "Region": "Massachusetts",
    "City": "Hingham",
    "Store_name": "Apple Derby Street",
    "Img_url": "https://www.apple.com/retail/derbystreet/images/hero_medium.jpg",
    "Store_address": "94 Derby Street, Hingham, MA, 02043",
    "Lat": 42.1775627,
    "Long": -70.9095583
  },
  {
    "Country": "United States",
    "Region": "Massachusetts",
    "City": "Dedham",
    "Store_name": "Apple Legacy Place",
    "Img_url": "https://www.apple.com/retail/legacyplace/images/hero_medium.jpg",
    "Store_address": "508 Legacy Place, Dedham, MA, 02026",
    "Lat": 42.2310068,
    "Long": -71.1783863
  },
  {
    "Country": "United States",
    "Region": "Massachusetts",
    "City": "Chestnut Hill",
    "Store_name": "Apple Chestnut Hill",
    "Img_url": "https://www.apple.com/retail/chestnuthill/images/hero_medium.jpg",
    "Store_address": "199 Boylston Street, Chestnut Hill, MA, 02467",
    "Lat": 42.3213853,
    "Long": -71.175966
  },
  {
    "Country": "United States",
    "Region": "Massachusetts",
    "City": "Cambridge",
    "Store_name": "Apple CambridgeSide",
    "Img_url": "https://www.apple.com/retail/cambridgeside/images/hero_medium.jpg",
    "Store_address": "100 CambridgeSide Place, Cambridge, MA, 02141",
    "Lat": 42.3680916,
    "Long": -71.07617499999999
  },
  {
    "Country": "United States",
    "Region": "Massachusetts",
    "City": "Burlington",
    "Store_name": "Apple Burlington",
    "Img_url": "https://www.apple.com/retail/burlington/images/hero_medium.jpg",
    "Store_address": "75 Middlesex Turnpike, Burlington, MA, 01803",
    "Lat": 42.482354,
    "Long": -71.21367459999999
  },
  {
    "Country": "United States",
    "Region": "Massachusetts",
    "City": "Braintree",
    "Store_name": "Apple South Shore",
    "Img_url": "https://www.apple.com/retail/southshore/images/hero_medium.jpg",
    "Store_address": "250 Granite Street, Braintree, MA, 02184",
    "Lat": 42.2209755,
    "Long": -71.0232497
  },
  {
    "Country": "United States",
    "Region": "Massachusetts",
    "City": "Boston",
    "Store_name": "Apple Boylston Street",
    "Img_url": "https://www.apple.com/retail/boylstonstreet/images/hero_medium.jpg",
    "Store_address": "815 Boylston Street, Boston, MA, 02116",
    "Lat": 42.3488956,
    "Long": -71.0824216
  },
  {
    "Country": "United States",
    "Region": "Maryland",
    "City": "Towson",
    "Store_name": "Apple Towson Town Center",
    "Img_url": "https://www.apple.com/retail/towsontowncenter/images/hero_medium.jpg",
    "Store_address": "825 Dulaney Valley Road, Towson, MD, 21204",
    "Lat": 39.4038642,
    "Long": -76.5987395
  },
  {
    "Country": "United States",
    "Region": "Maryland",
    "City": "Columbia",
    "Store_name": "Apple Columbia",
    "Img_url": "https://www.apple.com/retail/columbia/images/hero_medium.jpg",
    "Store_address": "10300 Little Patuxent Parkway, Columbia, MD, 21044",
    "Lat": 39.21488980000001,
    "Long": -76.8612603
  },
  {
    "Country": "United States",
    "Region": "Maryland",
    "City": "Bethesda",
    "Store_name": "Apple Montgomery Mall",
    "Img_url": "https://www.apple.com/retail/montgomerymall/images/hero_medium.jpg",
    "Store_address": "7101 Democracy Boulevard, Bethesda, MD, 20817",
    "Lat": 39.02570559999999,
    "Long": -77.14748279999999
  },
  {
    "Country": "United States",
    "Region": "Maryland",
    "City": "Bethesda",
    "Store_name": "Apple Bethesda Row",
    "Img_url": "https://www.apple.com/retail/bethesdarow/images/hero_medium.jpg",
    "Store_address": "4860 Bethesda Avenue, Bethesda, MD, 20814",
    "Lat": 38.9806494,
    "Long": -77.0977075
  },
  {
    "Country": "United States",
    "Region": "Maryland",
    "City": "Annapolis",
    "Store_name": "Apple Annapolis",
    "Img_url": "https://www.apple.com/retail/annapolis/images/hero_medium.jpg",
    "Store_address": "1735 Annapolis Mall, Annapolis, MD, 21401",
    "Lat": 38.9895813,
    "Long": -76.54859359999999
  },
  {
    "Country": "United States",
    "Region": "Maine",
    "City": "South Portland",
    "Store_name": "Apple Maine Mall",
    "Img_url": "https://www.apple.com/retail/mainemall/images/hero_medium.jpg",
    "Store_address": "364 Maine Mall Road, South Portland, ME, 04106",
    "Lat": 43.6335782,
    "Long": -70.33402579999999
  },
  {
    "Country": "United States",
    "Region": "Louisiana",
    "City": "Metairie",
    "Store_name": "Apple Lakeside Shopping Center",
    "Img_url": "https://www.apple.com/retail/lakesideshoppingcenter/images/hero_medium.jpg",
    "Store_address": "3301 Veterans Memorial Boulevard, Metairie, LA, 70002",
    "Lat": 30.0061148,
    "Long": -90.1573987
  },
  {
    "Country": "United States",
    "Region": "Louisiana",
    "City": "Baton Rouge",
    "Store_name": "Apple Mall of Louisiana",
    "Img_url": "https://www.apple.com/retail/malloflouisiana/images/hero_medium.jpg",
    "Store_address": "6401 Bluebonnet Boulevard, Baton Rouge, LA, 70836",
    "Lat": 30.3883917,
    "Long": -91.0888526
  },
  {
    "Country": "United States",
    "Region": "Kentucky",
    "City": "Louisville",
    "Store_name": "Apple Oxmoor",
    "Img_url": "https://www.apple.com/retail/oxmoor/images/hero_medium.jpg",
    "Store_address": "7900 Shelbyville Road, Louisville, KY, 40222",
    "Lat": 38.2470462,
    "Long": -85.60991659999999
  },
  {
    "Country": "United States",
    "Region": "Kentucky",
    "City": "Lexington",
    "Store_name": "Apple Fayette Mall",
    "Img_url": "https://www.apple.com/retail/fayettemall/images/hero_medium.jpg",
    "Store_address": "3401 Nicholasville Road, Lexington, KY, 40503",
    "Lat": 37.98874139999999,
    "Long": -84.5280568
  },
  {
    "Country": "United States",
    "Region": "Kansas",
    "City": "Leawood",
    "Store_name": "Apple Leawood",
    "Img_url": "https://www.apple.com/retail/leawood/images/hero_medium.jpg",
    "Store_address": "4529 West 119th Street, Leawood, KS, 66209",
    "Lat": 38.91149160000001,
    "Long": -94.6374712
  },
  {
    "Country": "United States",
    "Region": "Iowa",
    "City": "West Des Moines",
    "Store_name": "Apple Jordan Creek",
    "Img_url": "https://www.apple.com/retail/jordancreek/images/hero_medium.jpg",
    "Store_address": "101 Jordan Creek Parkway, West Des Moines, IA, 50266",
    "Lat": 41.5699285,
    "Long": -93.8041654
  },
  {
    "Country": "United States",
    "Region": "Indiana",
    "City": "Mishawaka",
    "Store_name": "Apple University Park Mall",
    "Img_url": "https://www.apple.com/retail/universityparkmall/images/hero_medium.jpg",
    "Store_address": "6501 North Grape Road, Mishawaka, IN, 46545",
    "Lat": 41.719128,
    "Long": -86.1901146
  },
  {
    "Country": "United States",
    "Region": "Indiana",
    "City": "Indianapolis",
    "Store_name": "Apple The Fashion Mall at Keystone",
    "Img_url": "https://www.apple.com/retail/thefashionmallatkeystone/images/hero_medium.jpg",
    "Store_address": "8702 Keystone Crossing, Indianapolis, IN, 46240",
    "Lat": 39.91406509999999,
    "Long": -86.1111523
  },
  {
    "Country": "United States",
    "Region": "Illinois",
    "City": "Skokie",
    "Store_name": "Apple Old Orchard",
    "Img_url": "https://www.apple.com/retail/oldorchard/images/hero_medium.jpg",
    "Store_address": "4999 Old Orchard Center, Skokie, IL, 60077",
    "Lat": 42.05912319999999,
    "Long": -87.7495227
  },
  {
    "Country": "United States",
    "Region": "Illinois",
    "City": "Schaumburg",
    "Store_name": "Apple Woodfield",
    "Img_url": "https://www.apple.com/retail/woodfield/images/hero_medium.jpg",
    "Store_address": "N311 Woodfield Mall, Schaumburg, IL, 60173",
    "Lat": 42.0455102,
    "Long": -88.0372319
  },
  {
    "Country": "United States",
    "Region": "Illinois",
    "City": "Orland Park",
    "Store_name": "Apple Orland Square Mall",
    "Img_url": "https://www.apple.com/retail/orlandsquaremall/images/hero_medium.jpg",
    "Store_address": "428 Orland Square, Orland Park, IL, 60462",
    "Lat": 41.6195628,
    "Long": -87.8483756
  },
  {
    "Country": "United States",
    "Region": "Illinois",
    "City": "Oak Brook",
    "Store_name": "Apple Oakbrook",
    "Img_url": "https://www.apple.com/retail/oakbrook/images/hero_medium.jpg",
    "Store_address": "70 Oakbrook Center, Oak Brook, IL, 60523",
    "Lat": 41.8497458,
    "Long": -87.9536297
  },
  {
    "Country": "United States",
    "Region": "Illinois",
    "City": "Northbrook",
    "Store_name": "Apple Northbrook",
    "Img_url": "https://www.apple.com/retail/northbrook/images/hero_medium.jpg",
    "Store_address": "1056 Northbrook Court, Northbrook, IL, 60062",
    "Lat": 42.1501168,
    "Long": -87.8162021
  },
  {
    "Country": "United States",
    "Region": "Illinois",
    "City": "Naperville",
    "Store_name": "Apple Main Place",
    "Img_url": "https://www.apple.com/retail/mainplace/images/hero_medium.jpg",
    "Store_address": "120 West Jefferson Avenue, Naperville, IL, 60540",
    "Lat": 41.7727282,
    "Long": -88.15041819999999
  },
  {
    "Country": "United States",
    "Region": "Illinois",
    "City": "Deer Park",
    "Store_name": "Apple Deer Park",
    "Img_url": "https://www.apple.com/retail/deerpark/images/hero_medium.jpg",
    "Store_address": "20530 N. Rand Road, Deer Park, IL, 60010",
    "Lat": 42.1611591,
    "Long": -88.0564027
  },
  {
    "Country": "United States",
    "Region": "Illinois",
    "City": "Chicago",
    "Store_name": "Apple Lincoln Park",
    "Img_url": "https://www.apple.com/retail/lincolnpark/images/hero_medium.jpg",
    "Store_address": "801 W. North Avenue, Chicago, IL, 60642",
    "Lat": 41.9105926,
    "Long": -87.64849799999999
  },
  {
    "Country": "United States",
    "Region": "Idaho",
    "City": "Boise",
    "Store_name": "Apple Boise Towne Square",
    "Img_url": "https://www.apple.com/retail/boisetownesquare/images/hero_medium.jpg",
    "Store_address": "350 North Milwaukee Street, #1083, Boise, ID, 83704",
    "Lat": 43.6082873,
    "Long": -116.2786774
  },
  {
    "Country": "United States",
    "Region": "Hawaii",
    "City": "Honolulu",
    "Store_name": "Apple Royal Hawaiian",
    "Img_url": "https://www.apple.com/retail/royalhawaiian/images/hero_medium.jpg",
    "Store_address": "2301 Kalakaua Avenue, Honolulu, HI, 96815",
    "Lat": 21.2776634,
    "Long": -157.8278703
  },
  {
    "Country": "United States",
    "Region": "Hawaii",
    "City": "Honolulu",
    "Store_name": "Apple Kahala",
    "Img_url": "https://www.apple.com/retail/kahala/images/hero_medium.jpg",
    "Store_address": "4211 Waialae Avenue, Honolulu, HI, 96816",
    "Lat": 21.2772953,
    "Long": -157.7865288
  },
  {
    "Country": "United States",
    "Region": "Hawaii",
    "City": "Honolulu",
    "Store_name": "Apple Ala Moana",
    "Img_url": "https://www.apple.com/retail/alamoana/images/hero_medium.jpg",
    "Store_address": "1450 Ala Moana Boulevard, Honolulu, HI, 96814",
    "Lat": 21.2903244,
    "Long": -157.8427068
  },
  {
    "Country": "United States",
    "Region": "Georgia",
    "City": "Buford",
    "Store_name": "Apple Mall of Georgia",
    "Img_url": "https://www.apple.com/retail/mallofgeorgia/images/hero_medium.jpg",
    "Store_address": "3333 Buford Drive, Buford, GA, 30519",
    "Lat": 34.0642949,
    "Long": -83.982776
  },
  {
    "Country": "United States",
    "Region": "Georgia",
    "City": "Augusta",
    "Store_name": "Apple Augusta",
    "Img_url": "https://www.apple.com/retail/augusta/images/hero_medium.jpg",
    "Store_address": "3450 Wrightsboro Road, Augusta, GA, 30909",
    "Lat": 33.4635508,
    "Long": -82.0788358
  },
  {
    "Country": "United States",
    "Region": "Georgia",
    "City": "Atlanta",
    "Store_name": "Apple Perimeter",
    "Img_url": "https://www.apple.com/retail/perimeter/images/hero_medium.jpg",
    "Store_address": "4400 Ashford Dunwoody Road, Atlanta, GA, 30346",
    "Lat": 33.9235944,
    "Long": -84.3405389
  },
  {
    "Country": "United States",
    "Region": "Georgia",
    "City": "Atlanta",
    "Store_name": "Apple Lenox Square",
    "Img_url": "https://www.apple.com/retail/lenoxsquare/images/hero_medium.jpg",
    "Store_address": "3393 Peachtree Road NE, Atlanta, GA, 30326",
    "Lat": 33.8475546,
    "Long": -84.3619696
  },
  {
    "Country": "United States",
    "Region": "Georgia",
    "City": "Atlanta",
    "Store_name": "Apple Cumberland Mall",
    "Img_url": "https://www.apple.com/retail/cumberlandmall/images/hero_medium.jpg",
    "Store_address": "1000 Cumberland Mall, Atlanta, GA, 30339",
    "Lat": 33.8804303,
    "Long": -84.4687488
  },
  {
    "Country": "United States",
    "Region": "Georgia",
    "City": "Alpharetta",
    "Store_name": "Apple Avalon",
    "Img_url": "https://www.apple.com/retail/avalon/images/hero_medium.jpg",
    "Store_address": "8130 Avalon Boulevard, Alpharetta, GA, 30009",
    "Lat": 34.0705333,
    "Long": -84.2747419
  },
  {
    "Country": "United States",
    "Region": "Florida",
    "City": "Wellington",
    "Store_name": "Apple Wellington Green",
    "Img_url": "https://www.apple.com/retail/wellingtongreen/images/hero_medium.jpg",
    "Store_address": "10300 W. Forest Hill Boulevard, Wellington, FL, 33414",
    "Lat": 26.646333,
    "Long": -80.2084654
  },
  {
    "Country": "United States",
    "Region": "Florida",
    "City": "Tampa",
    "Store_name": "Apple International Plaza",
    "Img_url": "https://www.apple.com/retail/internationalplaza/images/hero_medium.jpg",
    "Store_address": "2223 N West Shore Boulevard, Tampa, FL, 33607",
    "Lat": 27.9656353,
    "Long": -82.521205
  },
  {
    "Country": "United States",
    "Region": "Florida",
    "City": "Sarasota",
    "Store_name": "Apple University Town Center",
    "Img_url": "https://www.apple.com/retail/universitytowncenter/images/hero_medium.jpg",
    "Store_address": "140 University Town Center Drive, Sarasota, FL, 34243",
    "Lat": 27.3845581,
    "Long": -82.4531037
  },
  {
    "Country": "United States",
    "Region": "Florida",
    "City": "Palm Beach Gardens",
    "Store_name": "Apple The Gardens Mall",
    "Img_url": "https://www.apple.com/retail/thegardensmall/images/hero_medium.jpg",
    "Store_address": "3101 PGA Boulevard, Palm Beach Gardens, FL, 33410",
    "Lat": 26.8491395,
    "Long": -80.0856309
  },
  {
    "Country": "United States",
    "Region": "Florida",
    "City": "Orlando",
    "Store_name": "Apple Millenia",
    "Img_url": "https://www.apple.com/retail/millenia/images/hero_medium.jpg",
    "Store_address": "4200 Conroy Road, Orlando, FL, 32839",
    "Lat": 28.485565,
    "Long": -81.43154969999999
  },
  {
    "Country": "United States",
    "Region": "Florida",
    "City": "Orlando",
    "Store_name": "Apple Florida Mall",
    "Img_url": "https://www.apple.com/retail/floridamall/images/hero_medium.jpg",
    "Store_address": "8001 South Orange Blossom Trail, Orlando, FL, 32809",
    "Lat": 28.4459749,
    "Long": -81.39450219999999
  },
  {
    "Country": "United States",
    "Region": "Florida",
    "City": "Naples",
    "Store_name": "Apple Waterside Shops",
    "Img_url": "https://www.apple.com/retail/watersideshops/images/hero_medium.jpg",
    "Store_address": "5555 Tamiami Trail North, Naples, FL, 34108",
    "Lat": 26.2132065,
    "Long": -81.801861
  },
  {
    "Country": "United States",
    "Region": "Florida",
    "City": "Miami",
    "Store_name": "Apple The Falls",
    "Img_url": "https://www.apple.com/retail/thefalls/images/hero_medium.jpg",
    "Store_address": "8888 SW 136th Street, Miami, FL, 33176",
    "Lat": 25.6443825,
    "Long": -80.3394789
  },
  {
    "Country": "United States",
    "Region": "Florida",
    "City": "Miami",
    "Store_name": "Apple Dadeland",
    "Img_url": "https://www.apple.com/retail/dadeland/images/hero_medium.jpg",
    "Store_address": "7535 Dadeland Mall, Miami, FL, 33156",
    "Lat": 25.6905453,
    "Long": -80.3124946
  },
  {
    "Country": "United States",
    "Region": "Florida",
    "City": "Miami",
    "Store_name": "Apple Brickell City Centre",
    "Img_url": "https://www.apple.com/retail/brickellcitycentre/images/hero_medium.jpg",
    "Store_address": "701 S. Miami Avenue, Miami, FL, 33130",
    "Lat": 25.7671641,
    "Long": -80.1930805
  },
  {
    "Country": "United States",
    "Region": "Florida",
    "City": "Miami Beach",
    "Store_name": "Apple Lincoln Road",
    "Img_url": "https://www.apple.com/retail/lincolnroad/images/hero_medium.jpg",
    "Store_address": "1021 Lincoln Road, Miami Beach, FL, 33139",
    "Lat": 25.79075,
    "Long": -80.1393315
  },
  {
    "Country": "United States",
    "Region": "Florida",
    "City": "Jacksonville",
    "Store_name": "Apple St. Johns Town Center",
    "Img_url": "https://www.apple.com/retail/stjohnstowncenter/images/hero_medium.jpg",
    "Store_address": "4835 River City Drive, Jacksonville, FL, 32246",
    "Lat": 30.2533498,
    "Long": -81.5251305
  },
  {
    "Country": "United States",
    "Region": "Florida",
    "City": "Fort Lauderdale",
    "Store_name": "Apple The Galleria",
    "Img_url": "https://www.apple.com/retail/thegalleria/images/hero_medium.jpg",
    "Store_address": "2388 E. Sunrise Boulevard, Fort Lauderdale, FL, 33304",
    "Lat": 26.1372239,
    "Long": -80.11509520000001
  },
  {
    "Country": "United States",
    "Region": "Florida",
    "City": "Estero",
    "Store_name": "Apple Coconut Point",
    "Img_url": "https://www.apple.com/retail/coconutpoint/images/hero_medium.jpg",
    "Store_address": "23151 Fashion Drive, Estero, FL, 33928",
    "Lat": 26.4021876,
    "Long": -81.8065087
  },
  {
    "Country": "United States",
    "Region": "Florida",
    "City": "Brandon",
    "Store_name": "Apple Brandon",
    "Img_url": "https://www.apple.com/retail/brandon/images/hero_medium.jpg",
    "Store_address": "459 Brandon Town Center Drive, Brandon, FL, 33511",
    "Lat": 27.9312118,
    "Long": -82.325879
  },
  {
    "Country": "United States",
    "Region": "Florida",
    "City": "Boca Raton",
    "Store_name": "Apple Boca Raton",
    "Img_url": "https://www.apple.com/retail/bocaraton/images/hero_medium.jpg",
    "Store_address": "6000 Glades Road, Boca Raton, FL, 33431",
    "Lat": 26.3659017,
    "Long": -80.1343467
  },
  {
    "Country": "United States",
    "Region": "Florida",
    "City": "Aventura",
    "Store_name": "Apple Aventura",
    "Img_url": "https://www.apple.com/retail/aventura/images/hero_medium.jpg",
    "Store_address": "19501 Biscayne Boulevard, Aventura, FL, 33180",
    "Lat": 25.9572966,
    "Long": -80.14506899999999
  },
  {
    "Country": "United States",
    "Region": "Florida",
    "City": "Altamonte Springs",
    "Store_name": "Apple Altamonte",
    "Img_url": "https://www.apple.com/retail/altamonte/images/hero_medium.jpg",
    "Store_address": "451 E Altamonte Drive, Altamonte Springs, FL, 32701",
    "Lat": 28.6651514,
    "Long": -81.37790179999999
  },
  {
    "Country": "United States",
    "Region": "District of Columbia",
    "City": "Washington",
    "Store_name": "Apple Georgetown",
    "Img_url": "https://www.apple.com/retail/georgetown/images/hero_medium.jpg",
    "Store_address": "1229 Wisconsin Avenue NW, Washington, DC, 20007",
    "Lat": 38.9059351,
    "Long": -77.0626075
  },
  {
    "Country": "United States",
    "Region": "Delaware",
    "City": "Newark",
    "Store_name": "Apple Christiana Mall",
    "Img_url": "https://www.apple.com/retail/christianamall/images/hero_medium.jpg",
    "Store_address": "125 Christiana Mall, Newark, DE, 19702",
    "Lat": 39.6727603,
    "Long": -75.6582971
  },
  {
    "Country": "United States",
    "Region": "Connecticut",
    "City": "Trumbull",
    "Store_name": "Apple Trumbull",
    "Img_url": "https://www.apple.com/retail/trumbull/images/hero_medium.jpg",
    "Store_address": "5065 Main Street, Trumbull, CT, 06611",
    "Lat": 41.2293413,
    "Long": -73.2267736
  },
  {
    "Country": "United States",
    "Region": "Connecticut",
    "City": "Stamford",
    "Store_name": "Apple Stamford",
    "Img_url": "https://www.apple.com/retail/stamford/images/hero_medium.jpg",
    "Store_address": "100 Greyrock Place, Stamford, CT, 06901",
    "Lat": 41.0529958,
    "Long": -73.5369585
  },
  {
    "Country": "United States",
    "Region": "Connecticut",
    "City": "South Windsor",
    "Store_name": "Apple Evergreen Walk",
    "Img_url": "https://www.apple.com/retail/evergreenwalk/images/hero_medium.jpg",
    "Store_address": "401 Evergreen Walk, South Windsor, CT, 06074",
    "Lat": 41.8126748,
    "Long": -72.55661529999999
  },
  {
    "Country": "United States",
    "Region": "Connecticut",
    "City": "New Haven",
    "Store_name": "Apple New Haven",
    "Img_url": "https://www.apple.com/retail/newhaven/images/hero_medium.jpg",
    "Store_address": "65 Broadway, New Haven, CT, 06511",
    "Lat": 41.3119917,
    "Long": -72.9306692
  },
  {
    "Country": "United States",
    "Region": "Connecticut",
    "City": "Greenwich",
    "Store_name": "Apple Greenwich Avenue",
    "Img_url": "https://www.apple.com/retail/greenwichavenue/images/hero_medium.jpg",
    "Store_address": "356 Greenwich Avenue, Greenwich, CT, 06830",
    "Lat": 41.0233649,
    "Long": -73.6254486
  },
  {
    "Country": "United States",
    "Region": "Connecticut",
    "City": "Farmington",
    "Store_name": "Apple Westfarms",
    "Img_url": "https://www.apple.com/retail/westfarms/images/hero_medium.jpg",
    "Store_address": "500 Westfarms Mall, Farmington, CT, 06032",
    "Lat": 41.7219021,
    "Long": -72.76347679999999
  },
  {
    "Country": "United States",
    "Region": "Connecticut",
    "City": "Danbury",
    "Store_name": "Apple Danbury Fair Mall",
    "Img_url": "https://www.apple.com/retail/danburyfairmall/images/hero_medium.jpg",
    "Store_address": "Seven Backus Avenue, Danbury, CT, 06810",
    "Lat": 41.3800517,
    "Long": -73.4817327
  },
  {
    "Country": "United States",
    "Region": "Colorado",
    "City": "Lone Tree",
    "Store_name": "Apple Park Meadows",
    "Img_url": "https://www.apple.com/retail/parkmeadows/images/hero_medium.jpg",
    "Store_address": "8405 Park Meadows Center Drive, Lone Tree, CO, 80124",
    "Lat": 39.5614707,
    "Long": -104.8753259
  },
  {
    "Country": "United States",
    "Region": "Colorado",
    "City": "Littleton",
    "Store_name": "Apple Aspen Grove",
    "Img_url": "https://www.apple.com/retail/aspengrove/images/hero_medium.jpg",
    "Store_address": "7301 S Santa Fe Drive, Littleton, CO, 80120",
    "Lat": 39.5844826,
    "Long": -105.0253232
  },
  {
    "Country": "United States",
    "Region": "Colorado",
    "City": "Denver",
    "Store_name": "Apple Cherry Creek",
    "Img_url": "https://www.apple.com/retail/cherrycreek/images/hero_medium.jpg",
    "Store_address": "3000 E 1st Avenue, Denver, CO, 80206",
    "Lat": 39.7175014,
    "Long": -104.952671
  },
  {
    "Country": "United States",
    "Region": "Colorado",
    "City": "Colorado Springs",
    "Store_name": "Apple The Promenade Shops at Briargate",
    "Img_url": "https://www.apple.com/retail/thepromenadeshopsatbriargate/images/hero_medium.jpg",
    "Store_address": "1685 Briargate Parkway, Suite 315, Colorado Springs, CO, 80920",
    "Lat": 38.962592,
    "Long": -104.7957324
  },
  {
    "Country": "United States",
    "Region": "Colorado",
    "City": "Broomfield",
    "Store_name": "Apple FlatIron Crossing",
    "Img_url": "https://www.apple.com/retail/flatironcrossing/images/hero_medium.jpg",
    "Store_address": "One West Flatiron Crossing Drive, Broomfield, CO, 80021",
    "Lat": 39.9324925,
    "Long": -105.1311948
  },
  {
    "Country": "United States",
    "Region": "Colorado",
    "City": "Boulder",
    "Store_name": "Apple Twenty Ninth Street",
    "Img_url": "https://www.apple.com/retail/twentyninthstreet/images/hero_medium.jpg",
    "Store_address": "1755 29th Street, Boulder, CO, 80301",
    "Lat": 40.0176477,
    "Long": -105.2562969
  },
  {
    "Country": "United States",
    "Region": "California",
    "City": "Walnut Creek",
    "Store_name": "Apple Walnut Creek",
    "Img_url": "https://www.apple.com/retail/walnutcreek/images/hero_medium.jpg",
    "Store_address": "1129 S. Main Street, Walnut Creek, CA, 94596",
    "Lat": 37.8969944,
    "Long": -122.0602628
  },
  {
    "Country": "United States",
    "Region": "California",
    "City": "Valencia",
    "Store_name": "Apple Valencia Town Center",
    "Img_url": "https://www.apple.com/retail/valenciatowncenter/images/hero_medium.jpg",
    "Store_address": "24201 West Valencia Boulevard, Valencia, CA, 91355",
    "Lat": 34.417631,
    "Long": -118.5609214
  },
  {
    "Country": "United States",
    "Region": "California",
    "City": "Thousand Oaks",
    "Store_name": "Apple The Oaks",
    "Img_url": "https://www.apple.com/retail/theoaks/images/hero_medium.jpg",
    "Store_address": "432 West Hillcrest Drive, Thousand Oaks, CA, 91360",
    "Lat": 34.1839661,
    "Long": -118.8877851
  },
  {
    "Country": "United States",
    "Region": "California",
    "City": "Temecula",
    "Store_name": "Apple Promenade Temecula",
    "Img_url": "https://www.apple.com/retail/promenadetemecula/images/hero_medium.jpg",
    "Store_address": "40764 Winchester Road, Temecula, CA, 92591",
    "Lat": 33.5238259,
    "Long": -117.15363
  },
  {
    "Country": "United States",
    "Region": "California",
    "City": "Sherman Oaks",
    "Store_name": "Apple Sherman Oaks",
    "Img_url": "https://www.apple.com/retail/shermanoaks/images/hero_medium.jpg",
    "Store_address": "14006 Riverside Drive, Sherman Oaks, CA, 91423",
    "Lat": 34.1565665,
    "Long": -118.4370009
  },
  {
    "Country": "United States",
    "Region": "California",
    "City": "Santa Rosa",
    "Store_name": "Apple Santa Rosa Plaza",
    "Img_url": "https://www.apple.com/retail/santarosaplaza/images/hero_medium.jpg",
    "Store_address": "1071 Santa Rosa Plaza, Santa Rosa, CA, 95401",
    "Lat": 38.4395891,
    "Long": -122.7166853
  },
  {
    "Country": "United States",
    "Region": "California",
    "City": "Santa Monica",
    "Store_name": "Apple Third Street Promenade",
    "Img_url": "https://www.apple.com/retail/thirdstreetpromenade/images/hero_medium.jpg",
    "Store_address": "1415 Third Street Promenade, Santa Monica, CA, 90401",
    "Lat": 34.01542300000001,
    "Long": -118.495301
  },
  {
    "Country": "United States",
    "Region": "California",
    "City": "Santa Clara",
    "Store_name": "Apple Valley Fair",
    "Img_url": "https://www.apple.com/retail/valleyfair/images/hero_medium.jpg",
    "Store_address": "2855 Stevens Creek Boulevard, Santa Clara, CA, 95050",
    "Lat": 37.3255657,
    "Long": -121.9450002
  },
  {
    "Country": "United States",
    "Region": "California",
    "City": "Santa Barbara",
    "Store_name": "Apple State Street",
    "Img_url": "https://www.apple.com/retail/statestreet/images/hero_medium.jpg",
    "Store_address": "928 State Street, Santa Barbara, CA, 93101",
    "Lat": 34.4213885,
    "Long": -119.7012912
  },
  {
    "Country": "United States",
    "Region": "California",
    "City": "San Mateo",
    "Store_name": "Apple Hillsdale",
    "Img_url": "https://www.apple.com/retail/hillsdale/images/hero_medium.jpg",
    "Store_address": "340 Hillsdale Shopping Center, San Mateo, CA, 94403",
    "Lat": 37.53670899999999,
    "Long": -122.300118
  },
  {
    "Country": "United States",
    "Region": "California",
    "City": "San Luis Obispo",
    "Store_name": "Apple Higuera Street",
    "Img_url": "https://www.apple.com/retail/higuerastreet/images/hero_medium.jpg",
    "Store_address": "899 Higuera Street, San Luis Obispo, CA, 93401",
    "Lat": 35.2802914,
    "Long": -120.661687
  },
  {
    "Country": "United States",
    "Region": "California",
    "City": "San Jose",
    "Store_name": "Apple Oakridge",
    "Img_url": "https://www.apple.com/retail/oakridge/images/hero_medium.jpg",
    "Store_address": "925 Blossom Hill Road, San Jose, CA, 95123",
    "Lat": 37.2515431,
    "Long": -121.8624492
  },
  {
    "Country": "United States",
    "Region": "California",
    "City": "San Francisco",
    "Store_name": "Apple Union Square",
    "Img_url": "https://www.apple.com/retail/unionsquare/images/hero_medium.jpg",
    "Store_address": "300 Post Street, San Francisco, CA, 94108",
    "Lat": 37.7887802,
    "Long": -122.4070931
  },
  {
    "Country": "United States",
    "Region": "California",
    "City": "San Francisco",
    "Store_name": "Apple Stonestown",
    "Img_url": "https://www.apple.com/retail/stonestown/images/hero_medium.jpg",
    "Store_address": "3251 20th Avenue, San Francisco, CA, 94132",
    "Lat": 37.7277303,
    "Long": -122.4769749
  },
  {
    "Country": "United States",
    "Region": "California",
    "City": "San Francisco",
    "Store_name": "Apple Chestnut Street",
    "Img_url": "https://www.apple.com/retail/chestnutstreet/images/hero_medium.jpg",
    "Store_address": "2125 Chestnut Street, San Francisco, CA, 94123",
    "Lat": 37.8003459,
    "Long": -122.4383374
  },
  {
    "Country": "United States",
    "Region": "California",
    "City": "San Diego",
    "Store_name": "Apple UTC",
    "Img_url": "https://www.apple.com/retail/utc/images/hero_medium.jpg",
    "Store_address": "4305 La Jolla Village Drive, San Diego, CA, 92122",
    "Lat": 32.8718869,
    "Long": -117.2135875
  },
  {
    "Country": "United States",
    "Region": "California",
    "City": "San Diego",
    "Store_name": "Apple Fashion Valley",
    "Img_url": "https://www.apple.com/retail/fashionvalley/images/hero_medium.jpg",
    "Store_address": "7007 Friars Road, San Diego, CA, 92108",
    "Lat": 32.7681558,
    "Long": -117.1699017
  },
  {
    "Country": "United States",
    "Region": "California",
    "City": "Sacramento",
    "Store_name": "Apple Arden Fair",
    "Img_url": "https://www.apple.com/retail/ardenfair/images/hero_medium.jpg",
    "Store_address": "1689 Arden Way, Sacramento, CA, 95815",
    "Lat": 38.6008984,
    "Long": -121.4265998
  },
  {
    "Country": "United States",
    "Region": "California",
    "City": "Roseville",
    "Store_name": "Apple Roseville",
    "Img_url": "https://www.apple.com/retail/roseville/images/hero_medium.jpg",
    "Store_address": "1151 Galleria Boulevard, Roseville, CA, 95678",
    "Lat": 38.7734303,
    "Long": -121.269432
  },
  {
    "Country": "United States",
    "Region": "California",
    "City": "Rancho Cucamonga",
    "Store_name": "Apple Victoria Gardens",
    "Img_url": "https://www.apple.com/retail/victoriagardens/images/hero_medium.jpg",
    "Store_address": "12461 South Main Street, Rancho Cucamonga, CA, 91739",
    "Lat": 34.1106127,
    "Long": -117.5336233
  },
  {
    "Country": "United States",
    "Region": "California",
    "City": "Pleasanton",
    "Store_name": "Apple Stoneridge Mall",
    "Img_url": "https://www.apple.com/retail/stoneridgemall/images/hero_medium.jpg",
    "Store_address": "One Stoneridge Mall, Pleasanton, CA, 94588",
    "Lat": 37.6950484,
    "Long": -121.928467
  },
  {
    "Country": "United States",
    "Region": "California",
    "City": "Glendale",
    "Store_name": "Apple The Americana at Brand",
    "Img_url": "https://www.apple.com/retail/theamericanaatbrand/images/hero_medium.jpg",
    "Store_address": "877 Americana Way, Glendale, CA, 91210",
    "Lat": 34.144811,
    "Long": -118.257093
  },
  {
    "Country": "United States",
    "Region": "California",
    "City": "Glendale",
    "Store_name": "Apple Glendale Galleria",
    "Img_url": "https://www.apple.com/retail/glendalegalleria/images/hero_medium.jpg",
    "Store_address": "2126 Glendale Galleria, Glendale, CA, 91210",
    "Lat": 34.145276,
    "Long": -118.2585
  },
  {
    "Country": "United States",
    "Region": "California",
    "City": "Fresno",
    "Store_name": "Apple Fashion Fair",
    "Img_url": "https://www.apple.com/retail/fashionfair/images/hero_medium.jpg",
    "Store_address": "645 E. Shaw Avenue, Fresno, CA, 93710",
    "Lat": 36.8065876,
    "Long": -119.7760061
  },
  {
    "Country": "United States",
    "Region": "California",
    "City": "Escondido",
    "Store_name": "Apple North County",
    "Img_url": "https://www.apple.com/retail/northcounty/images/hero_medium.jpg",
    "Store_address": "272 E Via Rancho Parkway, Escondido, CA, 92025",
    "Lat": 33.0708079,
    "Long": -117.0658197
  },
  {
    "Country": "United States",
    "Region": "California",
    "City": "Emeryville",
    "Store_name": "Apple Bay Street",
    "Img_url": "https://www.apple.com/retail/baystreet/images/hero_medium.jpg",
    "Store_address": "5640 Bay Street, Emeryville, CA, 94608",
    "Lat": 37.8349698,
    "Long": -122.2917975
  },
  {
    "Country": "United States",
    "Region": "California",
    "City": "Cupertino",
    "Store_name": "Apple Infinite Loop",
    "Img_url": "https://www.apple.com/retail/infiniteloop/images/hero_medium.jpg",
    "Store_address": "One Infinite Loop, Cupertino, CA, 95014",
    "Lat": 37.3320003,
    "Long": -122.0307812
  },
  {
    "Country": "United States",
    "Region": "California",
    "City": "Costa Mesa",
    "Store_name": "Apple South Coast Plaza",
    "Img_url": "https://www.apple.com/retail/southcoastplaza/images/hero_medium.jpg",
    "Store_address": "3333 Bear Street, Costa Mesa, CA, 92626",
    "Lat": 33.6920547,
    "Long": -117.8928998
  },
  {
    "Country": "United States",
    "Region": "California",
    "City": "Corte Madera",
    "Store_name": "Apple Corte Madera",
    "Img_url": "https://www.apple.com/retail/cortemadera/images/hero_medium.jpg",
    "Store_address": "1520 Redwood Highway, Corte Madera, CA, 94925",
    "Lat": 37.9309722,
    "Long": -122.5125716
  },
  {
    "Country": "United States",
    "Region": "California",
    "City": "Chula Vista",
    "Store_name": "Apple Otay Ranch",
    "Img_url": "https://www.apple.com/retail/otayranch/images/hero_medium.jpg",
    "Store_address": "2015 Birch Road, Chula Vista, CA, 91915",
    "Lat": 32.6239399,
    "Long": -116.9682253
  },
  {
    "Country": "United States",
    "Region": "California",
    "City": "Cerritos",
    "Store_name": "Apple Los Cerritos",
    "Img_url": "https://www.apple.com/retail/loscerritos/images/hero_medium.jpg",
    "Store_address": "242 Los Cerritos Center, Cerritos, CA, 90703",
    "Lat": 33.8632709,
    "Long": -118.0937029
  },
  {
    "Country": "United States",
    "Region": "California",
    "City": "Carlsbad",
    "Store_name": "Apple Carlsbad",
    "Img_url": "https://www.apple.com/retail/carlsbad/images/hero_medium.jpg",
    "Store_address": "1923 Calle Barcelona, Carlsbad, CA, 92009",
    "Lat": 33.0715929,
    "Long": -117.2650856
  },
  {
    "Country": "United States",
    "Region": "California",
    "City": "Canoga Park",
    "Store_name": "Apple Topanga",
    "Img_url": "https://www.apple.com/retail/topanga/images/hero_medium.jpg",
    "Store_address": "6600 Topanga Canyon Boulevard, Canoga Park, CA, 91303",
    "Lat": 34.1854234,
    "Long": -118.6045534
  },
  {
    "Country": "United States",
    "Region": "California",
    "City": "Burlingame",
    "Store_name": "Apple Burlingame",
    "Img_url": "https://www.apple.com/retail/burlingame/images/hero_medium.jpg",
    "Store_address": "1301 Burlingame Avenue, Burlingame, CA, 94010",
    "Lat": 37.5782825,
    "Long": -122.3470856
  },
  {
    "Country": "United States",
    "Region": "California",
    "City": "Brea",
    "Store_name": "Apple Brea Mall",
    "Img_url": "https://www.apple.com/retail/breamall/images/hero_medium.jpg",
    "Store_address": "1016C Brea Mall, Brea, CA, 92821",
    "Lat": 33.9153109,
    "Long": -117.8836199
  },
  {
    "Country": "United States",
    "Region": "California",
    "City": "Berkeley",
    "Store_name": "Apple 4th Street",
    "Img_url": "https://www.apple.com/retail/4thstreet/images/hero_medium.jpg",
    "Store_address": "1823 4th Street, Berkeley, CA, 94710",
    "Lat": 37.8693274,
    "Long": -122.3001657
  },
  {
    "Country": "United States",
    "Region": "California",
    "City": "Bakersfield",
    "Store_name": "Apple Valley Plaza",
    "Img_url": "https://www.apple.com/retail/valleyplaza/images/hero_medium.jpg",
    "Store_address": "2701 Ming Avenue, Bakersfield, CA, 93304",
    "Lat": 35.3381686,
    "Long": -119.0344118
  },
  {
    "Country": "United States",
    "Region": "Arkansas",
    "City": "Little Rock",
    "Store_name": "Apple The Promenade at Chenal",
    "Img_url": "https://www.apple.com/retail/thepromenadeatchenal/images/hero_medium.jpg",
    "Store_address": "17711 Chenal Parkway, Little Rock, AR, 72223",
    "Lat": 34.7662944,
    "Long": -92.4589331
  },
  {
    "Country": "United States",
    "Region": "Arizona",
    "City": "Tucson",
    "Store_name": "Apple La Encantada",
    "Img_url": "https://www.apple.com/retail/laencantada/images/hero_medium.jpg",
    "Store_address": "2905 East Skyline Drive, Tucson, AZ, 85718",
    "Lat": 32.3247418,
    "Long": -110.9301132
  },
  {
    "Country": "United States",
    "Region": "Arizona",
    "City": "Scottsdale",
    "Store_name": "Apple Scottsdale Quarter",
    "Img_url": "https://www.apple.com/retail/scottsdalequarter/images/hero_medium.jpg",
    "Store_address": "15169 North Scottsdale Road, Scottsdale, AZ, 85254",
    "Lat": 33.6245445,
    "Long": -111.9257336
  },
  {
    "Country": "United States",
    "Region": "Arizona",
    "City": "Phoenix",
    "Store_name": "Apple Biltmore",
    "Img_url": "https://www.apple.com/retail/biltmore/images/hero_medium.jpg",
    "Store_address": "2502 East Camelback Road, Phoenix, AZ, 85016",
    "Lat": 33.5104431,
    "Long": -112.0287274
  },
  {
    "Country": "United States",
    "Region": "Arizona",
    "City": "Glendale",
    "Store_name": "Apple Arrowhead",
    "Img_url": "https://www.apple.com/retail/arrowhead/images/hero_medium.jpg",
    "Store_address": "7700 West Arrowhead Towne Center, Glendale, AZ, 85308",
    "Lat": 33.6420644,
    "Long": -112.2252092
  },
  {
    "Country": "United States",
    "Region": "Arizona",
    "City": "Gilbert",
    "Store_name": "Apple SanTan Village",
    "Img_url": "https://www.apple.com/retail/santanvillage/images/hero_medium.jpg",
    "Store_address": "2218 E. Williams Field Road, Gilbert, AZ, 85295",
    "Lat": 33.3102863,
    "Long": -111.7427414
  },
  {
    "Country": "United States",
    "Region": "Arizona",
    "City": "Chandler",
    "Store_name": "Apple Chandler Fashion Center",
    "Img_url": "https://www.apple.com/retail/chandlerfashioncenter/images/hero_medium.jpg",
    "Store_address": "3111 W Chandler Boulevard, Chandler, AZ, 85226",
    "Lat": 33.3014704,
    "Long": -111.8984059
  },
  {
    "Country": "United States",
    "Region": "Alaska",
    "City": "Anchorage",
    "Store_name": "Apple Anchorage 5th Avenue Mall",
    "Img_url": "https://www.apple.com/retail/anchorage5thavenuemall/images/hero_medium.jpg",
    "Store_address": "320 West 5th Avenue, Anchorage, AK, 99501",
    "Lat": 61.21708100000001,
    "Long": -149.8885111
  },
  {
    "Country": "United States",
    "Region": "Alabama",
    "City": "Huntsville",
    "Store_name": "Apple Bridge Street",
    "Img_url": "https://www.apple.com/retail/bridgestreet/images/hero_medium.jpg",
    "Store_address": "320 The Bridge Street, Huntsville, AL, 35806",
    "Lat": 34.7160189,
    "Long": -86.67281559999999
  }
]
